bizId,name,rating,reviewCount,formattedAddress,latitude,longitude,categories,region,city,isAd,photoUrl,businessUrl
rMUyTGt_FW2AHUn-kfraDA,Thanh Auto Repair,4.7,578,10462 Stanford Ave,33.77759281374617,-117.950351,['Auto Repair'],California,Anaheim,False,https://s3-media0.fl.yelpcdn.com/bphoto/wK35TuWtkEHkcNrRbK6fhg/ls.jpg,https://www.yelp.com/biz/thanh-auto-repair-garden-grove?osq=Auto+Services&override_cta=Get+pricing
PPGbzCfdP4ecgCiH_wTiaQ,Neel's Car Care Center,4.9,186,17025 Imperial Hwy,33.90172439022897,-117.83584464906988,"['Auto Repair', 'Oil Change Stations']",California,Anaheim,False,https://s3-media0.fl.yelpcdn.com/bphoto/V9DI6QjqTpksZmetuBVjeQ/ls.jpg,https://www.yelp.com/biz/neels-car-care-center-yorba-linda?osq=Auto+Services&override_cta=Get+pricing
AZdzqjDe4LSmrPW1JaJ4yg,Full Service Auto & Transmission Repairs,4.8,361,14747 Artesia Blvd,33.8745326,-118.0166112,"['Auto Repair', 'Transmission Repair']",California,Anaheim,False,https://s3-media0.fl.yelpcdn.com/bphoto/w2_MOoFBHdxFZNYsZlsdHw/ls.jpg,https://www.yelp.com/biz/full-service-auto-and-transmission-repairs-la-mirada-3?osq=Auto+Services&override_cta=Get+pricing
wiQ8t7Fij2mhGTR2874t8w,Chapman Auto Repair of Orange,4.6,981,807 W Chapman Ave,33.78812841889797,-117.8609055,"['Auto Repair', 'Smog Check Stations', 'Oil Change Stations']",California,Anaheim,False,https://s3-media0.fl.yelpcdn.com/bphoto/fWPIaJH4DyckeeoDDjSoIg/ls.jpg,https://www.yelp.com/biz/chapman-auto-repair-of-orange-orange-4?osq=Auto+Services&override_cta=Get+pricing
qCSzC6hDyoUtLZAtUZbbzg,The Auto Service,4.6,241,800 S Grand Ave,33.7380223,-117.8506256,"['Auto Repair', 'Tires', 'Smog Check Stations']",California,Anaheim,False,https://s3-media0.fl.yelpcdn.com/bphoto/Z2H-o_LSF_tJVcSjgQEOUA/ls.jpg,https://www.yelp.com/biz/the-auto-service-santa-ana?osq=Auto+Services&override_cta=Get+pricing
QTv9onSj6FThmN6lCS9W6g,Cook's Tire & Service,5.0,1,421 W Chapman Ave,33.7891896,-117.9123135,"['Tires', 'Auto Repair', 'Oil Change Stations']",California,Anaheim,False,https://s3-media0.fl.yelpcdn.com/bphoto/-eK5R_liqgicxwGv00NPww/ls.jpg,https://www.yelp.com/biz/cooks-tire-and-service-anaheim?osq=Auto+Services&override_cta=Get+pricing
3_FsO6nvs7ppxXzvIOm9pg,Placentia Super Service,4.6,451,643 S Melrose St,33.8645295,-117.8752235,"['Auto Repair', 'Transmission Repair', 'Oil Change Stations']",California,Anaheim,False,https://s3-media0.fl.yelpcdn.com/bphoto/gk3YTJMBH2gEt-YgUYZVOw/ls.jpg,https://www.yelp.com/biz/placentia-super-service-placentia?osq=Auto+Services&override_cta=Get+pricing
oMNCVkG4KMVNcF7RzbleCQ,Anaheim Auto Repair and Muffler Care,4.7,570,2583 W Ball Rd,33.8179809,-117.9754897,"['Auto Repair', 'Oil Change Stations', 'Transmission Repair']",California,Anaheim,False,https://s3-media0.fl.yelpcdn.com/bphoto/NwlJ104ZisCnRoAfgab2vQ/ls.jpg,https://www.yelp.com/biz/anaheim-auto-repair-and-muffler-care-anaheim?osq=Auto+Services&override_cta=Get+pricing
b6BnjYkGO9KIVE6Saafqvw,S & K Auto Repair,4.7,176,146 W Wilshire Ave,33.8719847,-117.9263419,"['Auto Repair', 'Oil Change Stations']",California,Anaheim,False,https://s3-media0.fl.yelpcdn.com/bphoto/iMtrm3x1JwNLB0MvubfbWw/ls.jpg,https://www.yelp.com/biz/s-and-k-auto-repair-fullerton?osq=Auto+Services&override_cta=Get+pricing
4ohP_Kc2lvzm0M2AZ9QyFw,Becker Tire & Service Center,4.8,323,1100 N Tustin,33.805710820602364,-117.8361544,"['Tires', 'Auto Repair', 'Wheel & Rim Repair']",California,Anaheim,False,https://s3-media0.fl.yelpcdn.com/bphoto/PdvxCCayI_-kfMiMXfm9qA/ls.jpg,https://www.yelp.com/biz/becker-tire-and-service-center-orange?osq=Auto+Services&override_cta=Get+pricing
_w3qupwFxGkMO5F1iMRlWg,Lawrence's Auto Repair,4.9,429,460 W Wilken Way,33.792367,-117.9133232,"['Auto Repair', 'Smog Check Stations']",California,Anaheim,False,https://s3-media0.fl.yelpcdn.com/bphoto/FCNT58uLaUKo-Bsz8Xv6-A/ls.jpg,https://www.yelp.com/biz/lawrences-auto-repair-anaheim?osq=Auto+Services&override_cta=Get+pricing
KGK9MX0nwNtfKlKh5TeVpQ,Harbor Brakes & Auto Repair,4.8,527,13692 Harbor Blvd,33.7643701,-117.9194507,"['Tires', 'Auto Repair', 'Transmission Repair']",California,Anaheim,False,https://s3-media0.fl.yelpcdn.com/bphoto/E3qkt6eDl0kaH-22iPd48w/ls.jpg,https://www.yelp.com/biz/harbor-brakes-and-auto-repair-garden-grove-3?osq=Auto+Services&override_cta=Get+pricing
wneb04kmtAg0k4SsMYyHKg,Fullerton Auto Repair Clinic & Body Shop,4.7,405,148 Lloyd Ave,33.8692963,-117.9626536,"['Body Shops', 'Auto Repair', 'Oil Change Stations']",California,Anaheim,False,https://s3-media0.fl.yelpcdn.com/bphoto/iZ5YfNKHjLS-eABB4bA21A/ls.jpg,https://www.yelp.com/biz/fullerton-auto-repair-clinic-and-body-shop-fullerton-7?osq=Auto+Services&override_cta=Get+pricing
IQgn_haln5SZnqZ8Bs2l0Q,Your Dream Garage,4.9,164,709 W Commonwealth Ave,33.8704559,-117.9379436,"['DIY Auto Shop', 'Tires']",California,Anaheim,False,https://s3-media0.fl.yelpcdn.com/bphoto/j_oaMIY95wT8Uyb_2dVVkw/ls.jpg,https://www.yelp.com/biz/your-dream-garage-fullerton?osq=Auto+Services&override_cta=Get+pricing
-ve99foZnuwPJ0xAhlMolw,Frank's Auto Service,4.9,230,2880 E Miraloma Ave,33.8552351,-117.8684579,"['Auto Repair', 'Oil Change Stations', 'Transmission Repair']",California,Anaheim,False,https://s3-media0.fl.yelpcdn.com/bphoto/k5OVAhqYonRtao5xA9NBUw/ls.jpg,https://www.yelp.com/biz/franks-auto-service-anaheim?osq=Auto+Services&override_cta=Get+pricing
eqsOIgLMvcMMnHVpcrFfNg,Western Brake & Tire,4.6,113,801 E Ball Rd,33.8185082583553,-117.899968267684,"['Tires', 'Auto Repair']",California,Anaheim,False,https://s3-media0.fl.yelpcdn.com/bphoto/nVnhe5_e9tx4a81u2F58ZA/ls.jpg,https://www.yelp.com/biz/western-brake-and-tire-anaheim?osq=Auto+Services&override_cta=Get+pricing
h57ww6TkesGWyEdHM3mtkQ,Cook's Tire & Tune,4.8,645,420 W Lincoln Ave,33.834531262202,-117.857369659594,"['Auto Repair', 'Oil Change Stations', 'Tires']",California,Anaheim,False,https://s3-media0.fl.yelpcdn.com/bphoto/5RcXg_7KNeBR7xGiFP3Zpw/ls.jpg,https://www.yelp.com/biz/cooks-tire-and-tune-orange-27?osq=Auto+Services&override_cta=Get+pricing
ht3sSPJPSfM0izcfUX5iTQ,Steed Auto Repair,4.5,375,8143 Commonwealth Ave,33.8701161,-117.9913902,"['Auto Repair', 'Smog Check Stations', 'Oil Change Stations']",California,Anaheim,False,https://s3-media0.fl.yelpcdn.com/bphoto/rU9h3dW4wnASsVD9x_hv4w/ls.jpg,https://www.yelp.com/biz/steed-auto-repair-buena-park?osq=Auto+Services&override_cta=Get+pricing
zXfnM3JCFxJFwAuAtmB6ng,James Auto Center,4.5,257,10711 Garden Grove Blvd,33.7744444,-117.9458897,"['Auto Repair', 'Tires']",California,Anaheim,False,https://s3-media0.fl.yelpcdn.com/bphoto/KMeld_O6Re0TvRO5Pin0Aw/ls.jpg,https://www.yelp.com/biz/james-auto-center-garden-grove-4?osq=Auto+Services&override_cta=Get+pricing
MQJ5p1YUYcAhOMn7V6pZ5A,AutoWave Honda & Acura Specialists,4.7,177,17122 Gothard St,33.7136665,-117.999784,"['Transmission Repair', 'Auto Repair']",California,Anaheim,True,https://s3-media0.fl.yelpcdn.com/bphoto/-NjmnwU18Q2fEkO8OFyu2w/ls.jpg,https://www.yelp.com/biz/autowave-honda-and-acura-specialists-huntington-beach-2?override_cta=Get+pricing
6KUsoNV904G86kCnFHWyBg,Performance Auto Service & Repair,4.9,250,2044 Placentia Ave,33.6487114,-117.9315219,['Auto Repair'],California,Anaheim,False,https://s3-media0.fl.yelpcdn.com/bphoto/TxOkkHrQquPr_0GKxrZo-g/ls.jpg,https://www.yelp.com/biz/performance-auto-service-and-repair-costa-mesa?osq=Auto+Services&override_cta=Get+pricing
Io7a5r8CQlpz540c_X8Z1w,BC Advance Auto Repair,4.8,655,308 N Harbor Blvd,33.7470833,-117.920575,"['Auto Repair', 'Oil Change Stations', 'Transmission Repair']",California,Anaheim,False,https://s3-media0.fl.yelpcdn.com/bphoto/eiPXUFxfO9s2PYNG4dOpBQ/ls.jpg,https://www.yelp.com/biz/bc-advance-auto-repair-santa-ana?osq=Auto+Services&override_cta=Get+pricing
6WuTrr9IkvnObhxZoPi5ng,Duncan's Auto Service,4.9,97,2172 N Batavia St,33.8235458,-117.8624525,['Auto Repair'],California,Anaheim,False,https://s3-media0.fl.yelpcdn.com/bphoto/htPQElFR1lrFJU354uGOvA/ls.jpg,https://www.yelp.com/biz/duncans-auto-service-orange?osq=Auto+Services&override_cta=Get+pricing
dJpVmq7WUg7tFPGrzT5qAA,Japanese Auto Center,4.6,553,1846 Del Amo Blvd,33.8465762446688,-118.31072489143432,['Auto Repair'],California,Anaheim,False,https://s3-media0.fl.yelpcdn.com/bphoto/eMd0WXAkjb1B2ST7sOuJaQ/ls.jpg,https://www.yelp.com/biz/japanese-auto-center-torrance?osq=Auto+Services&override_cta=Get+pricing
PDUXQEzgO2lmyRI_F5fecA,Guero's Auto Repair,4.6,37,3300 Westminster Ave,33.75958915452159,-117.91445695330464,"['Auto Repair', 'Tires', 'Auto Parts & Supplies']",California,Anaheim,False,https://s3-media0.fl.yelpcdn.com/bphoto/JZQ93bkKCVOnRGxxjetVpg/ls.jpg,https://www.yelp.com/biz/gueros-auto-repair-santa-ana-2?osq=Auto+Services&override_cta=Get+pricing
9WOGIos-0WGQQF9Ag5NSXg,Kool Auto Service,4.9,67,1901 W Lambert Rd,33.9248543,-117.9668875,"['Auto Repair', 'Smog Check Stations', 'Oil Change Stations']",California,Anaheim,False,https://s3-media0.fl.yelpcdn.com/bphoto/d0d64LGO1k4AWCVv0LtKYA/ls.jpg,https://www.yelp.com/biz/kool-auto-service-la-habra-2?osq=Auto+Services&override_cta=Get+pricing
tCIOlVpTdgd2fjd4EHkeOQ,Electron Automotive,4.7,217,969 N Batavia St,33.803164,-117.8607333,"['Auto Repair', 'Hybrid Car Repair', 'Oil Change Stations']",California,Anaheim,False,https://s3-media0.fl.yelpcdn.com/bphoto/OAQcC_pAdr_QBpDFpVCQYA/ls.jpg,https://www.yelp.com/biz/electron-automotive-orange?osq=Auto+Services&override_cta=Get+pricing
YQMJgztyJ1i7OlHwj0g6eA,Al's Auto Electric,4.8,18,631 S Anaheim Blvd,33.8278504,-117.9118696,['Auto Repair'],California,Anaheim,False,https://s3-media0.fl.yelpcdn.com/bphoto/oXpA3y45oOAWtbuYkifqRA/ls.jpg,https://www.yelp.com/biz/als-auto-electric-anaheim?osq=Auto+Services&override_cta=Get+pricing
P3s-b76T-EXuf2FTJOkrVA,Econo Lube N' Tune & Brakes,4.7,180,845 E Lincoln Ave,33.83668890000001,-117.8446738,"['Oil Change Stations', 'Auto Repair']",California,Anaheim,False,https://s3-media0.fl.yelpcdn.com/bphoto/4yqAICxdptitEF5G_O-oMg/ls.jpg,https://www.yelp.com/biz/econo-lube-n-tune-and-brakes-orange-2?osq=Auto+Services&override_cta=Get+pricing
mE-LMCtt585UfvzrrzoVWw,Toyota of Orange,3.6,2584,1400 N Tustin St,33.810784,-117.836453,"['Auto Repair', 'Car Dealers', 'Used Car Dealers']",California,Anaheim,False,https://s3-media0.fl.yelpcdn.com/bphoto/WUsLflC-c11QVVbTpVVXrQ/ls.jpg,https://www.yelp.com/biz/toyota-of-orange-orange?osq=Auto+Services&override_cta=Get+pricing
3N5ysuUmM7f6hotzT8XUJg,J & J Auto Service,4.6,72,300 S Magnolia Ave,33.866096,-117.975968,['Auto Repair'],California,Anaheim,False,https://s3-media0.fl.yelpcdn.com/bphoto/TbsduHRzCsn_wA0HvPCusA/ls.jpg,https://www.yelp.com/biz/j-and-j-auto-service-fullerton?osq=Auto+Services&override_cta=Get+pricing
KYBZS83iWz8PhlKaLHbHRg,Castners Auto Service,4.7,66,214 S Bradford Ave,33.8700109,-117.8708149,"['Auto Repair', 'Smog Check Stations']",California,Anaheim,False,https://s3-media0.fl.yelpcdn.com/bphoto/VlJfWSXUO0tLvpOS1u-YVQ/ls.jpg,https://www.yelp.com/biz/castners-auto-service-placentia?osq=Auto+Services&override_cta=Get+pricing
49V0eYqEFJSZWpA8n813lA,JIN'S Autocare,5.0,15,14582 Goldenwest St,33.750721211459165,-118.0068762,"['Auto Repair', 'Oil Change Stations', 'Windshield Installation & Repair']",California,Anaheim,False,https://s3-media0.fl.yelpcdn.com/bphoto/GjaMClCaJ5G0tLlAWO8Cvw/ls.jpg,https://www.yelp.com/biz/jins-autocare-westminster?osq=Auto+Services&override_cta=Get+pricing
MwCYJUCAegzSBoMHzlgdHw,Expertec Automotive,4.8,56,718 W Lincoln Ave,33.8331503,-117.9229046,"['Auto Repair', 'Tires']",California,Anaheim,False,https://s3-media0.fl.yelpcdn.com/bphoto/3skAoyL_TRxMXkVLkNxz-A/ls.jpg,https://www.yelp.com/biz/expertec-automotive-anaheim?osq=Auto+Services&override_cta=Get+pricing
nGPFhMKa-xknVAJuvrxVuw,Dinh's Pass or Don't Pay Smog Check,4.9,650,1135 W Barkley Ave,33.801499,-117.864632,"['Smog Check Stations', 'Auto Repair']",California,Anaheim,False,https://s3-media0.fl.yelpcdn.com/bphoto/RQM6VOsLqTb3UFj59tM02w/ls.jpg,https://www.yelp.com/biz/dinhs-pass-or-dont-pay-smog-check-orange?osq=Auto+Services&override_cta=Get+pricing
-ztdkrCejhfJ5_r5b-XMTg,Advanced Car Care,4.2,283,817 S Brookhurst,33.8206712968276,-117.959545254707,"['Auto Repair', 'Tires']",California,Anaheim,False,https://s3-media0.fl.yelpcdn.com/bphoto/EBbFjv9VXtDM2pEyJhdjHA/ls.jpg,https://www.yelp.com/biz/advanced-car-care-anaheim-3?osq=Auto+Services&override_cta=Get+pricing
5EELTp16k-0nnc-lqU1VOQ,Auto Technik Carcare,4.8,431,5260 Las Flores Dr,33.98234834799234,-117.6896848777898,['Auto Repair'],California,Anaheim,False,https://s3-media0.fl.yelpcdn.com/bphoto/bNXQb2DI6qb9jf7VTcSW9w/ls.jpg,https://www.yelp.com/biz/auto-technik-carcare-chino-2?osq=Auto+Services&override_cta=Get+pricing
qdZNp1E9t9wP0cK_KocRVw,Bavarian Autotech's,4.7,89,551 S Raymond Ave,33.86522,-117.9071889,['Auto Repair'],California,Anaheim,False,https://s3-media0.fl.yelpcdn.com/bphoto/7Ru5Nxdtv6IAkndEj2EhMw/ls.jpg,https://www.yelp.com/biz/bavarian-autotechs-fullerton?osq=Auto+Services&override_cta=Get+pricing
1UedJpLZBWsR30yyq5fjxQ,JR's Wheels & Tires,4.7,578,1695 W Lincoln Ave,33.832889,-117.940848,"['Wheel & Rim Repair', 'Tires', 'Auto Repair']",California,Anaheim,False,https://s3-media0.fl.yelpcdn.com/bphoto/jxm2ZFg7CPXpvk0ox-zg8Q/ls.jpg,https://www.yelp.com/biz/jrs-wheels-and-tires-anaheim-2?osq=Auto+Services&override_cta=Get+pricing
BbpBaXstTVxgDVf-bJ6kQg,George's Auto Service,4.9,104,14213 Imperial Hwy,33.91750892592331,-118.02853093862304,['Auto Repair'],California,Anaheim,False,https://s3-media0.fl.yelpcdn.com/bphoto/XVoTHPCwVrxs3hIwsFTaPQ/ls.jpg,https://www.yelp.com/biz/georges-auto-service-la-mirada?osq=Auto+Services&override_cta=Get+pricing
6H2HnzANWMBWYM-tTU2b0A,Danny's Auto Service,4.9,342,205 N Fairview St,33.747161719279426,-117.90493595330427,"['Auto Repair', 'Oil Change Stations', 'Transmission Repair']",California,Anaheim,False,https://s3-media0.fl.yelpcdn.com/bphoto/HxAnrpjzkWFsJ6sGbwB3tw/ls.jpg,https://www.yelp.com/biz/dannys-auto-service-santa-ana?osq=Auto+Services&override_cta=Get+pricing
WsOdx3HSgrgr0zBwX7b5kg,J&C Tires & Service,4.9,92,914 S Harbor Blvd,33.7354195,-117.920596,"['Tires', 'Oil Change Stations', 'Auto Repair']",California,Anaheim,False,https://s3-media0.fl.yelpcdn.com/bphoto/YcCkEvfqQoMhE6Gt6l8Lmg/ls.jpg,https://www.yelp.com/biz/j-and-c-tires-and-service-santa-ana-2?osq=Auto+Services&override_cta=Get+pricing
dwSJy43cnugx2yvDsIZkVA,Orange Independent Auto Repair,4.8,41,187 S Main St,33.7864195,-117.8668828,['Auto Repair'],California,Anaheim,False,https://s3-media0.fl.yelpcdn.com/bphoto/o9mmPmFAZDzNaj2jGY4zYA/ls.jpg,https://www.yelp.com/biz/orange-independent-auto-repair-orange?osq=Auto+Services&override_cta=Get+pricing
wmOWWLFpNB_TZ8gt2KjtqA,Pops & Sons Automotive,4.9,61,629 W Valencia Dr,33.86777624461516,-117.93627762939948,['Auto Repair'],California,Anaheim,False,https://s3-media0.fl.yelpcdn.com/bphoto/HpxebuinVPY5AGyDhgvPmg/ls.jpg,https://www.yelp.com/biz/pops-and-sons-automotive-fullerton?osq=Auto+Services&override_cta=Get+pricing
gEml6d27-9Od2bUHgF63fQ,Auto Pros,4.6,242,816 N Main St,33.8008045,-117.8669506,"['Auto Repair', 'Transmission Repair', 'Oil Change Stations']",California,Anaheim,False,https://s3-media0.fl.yelpcdn.com/bphoto/IgoXtf0l3C9DSe-k25eIng/ls.jpg,https://www.yelp.com/biz/auto-pros-orange-3?osq=Auto+Services&override_cta=Get+pricing
TH_vpw8pq-M-pYnO6cElRw,Moyo Tires & Auto Service,4.2,21,105 S State College Blvd,33.8407728,-117.8895866,"['Auto Repair', 'Tires']",California,Anaheim,False,https://s3-media0.fl.yelpcdn.com/bphoto/mbT45mzQBzIZqPRA2kofgg/ls.jpg,https://www.yelp.com/biz/moyo-tires-and-auto-service-anaheim-2?osq=Auto+Services&override_cta=Get+pricing
qCSzC6hDyoUtLZAtUZbbzg,The Auto Service,4.6,241,800 S Grand Ave,33.7380223,-117.8506256,"['Auto Repair', 'Tires', 'Smog Check Stations']",California,Santa-Ana,False,https://s3-media0.fl.yelpcdn.com/bphoto/Z2H-o_LSF_tJVcSjgQEOUA/ls.jpg,https://www.yelp.com/biz/the-auto-service-santa-ana?osq=Auto+Services&override_cta=Get+pricing
Io7a5r8CQlpz540c_X8Z1w,BC Advance Auto Repair,4.8,655,308 N Harbor Blvd,33.7470833,-117.920575,"['Auto Repair', 'Oil Change Stations', 'Transmission Repair']",California,Santa-Ana,False,https://s3-media0.fl.yelpcdn.com/bphoto/eiPXUFxfO9s2PYNG4dOpBQ/ls.jpg,https://www.yelp.com/biz/bc-advance-auto-repair-santa-ana?osq=Auto+Services&override_cta=Get+pricing
rMUyTGt_FW2AHUn-kfraDA,Thanh Auto Repair,4.7,578,10462 Stanford Ave,33.77759281374617,-117.950351,['Auto Repair'],California,Santa-Ana,False,https://s3-media0.fl.yelpcdn.com/bphoto/wK35TuWtkEHkcNrRbK6fhg/ls.jpg,https://www.yelp.com/biz/thanh-auto-repair-garden-grove?osq=Auto+Services&override_cta=Get+pricing
6H2HnzANWMBWYM-tTU2b0A,Danny's Auto Service,4.9,342,205 N Fairview St,33.747161719279426,-117.90493595330427,"['Auto Repair', 'Oil Change Stations', 'Transmission Repair']",California,Santa-Ana,False,https://s3-media0.fl.yelpcdn.com/bphoto/HxAnrpjzkWFsJ6sGbwB3tw/ls.jpg,https://www.yelp.com/biz/dannys-auto-service-santa-ana?osq=Auto+Services&override_cta=Get+pricing
KGK9MX0nwNtfKlKh5TeVpQ,Harbor Brakes & Auto Repair,4.8,527,13692 Harbor Blvd,33.7643701,-117.9194507,"['Tires', 'Auto Repair', 'Transmission Repair']",California,Santa-Ana,False,https://s3-media0.fl.yelpcdn.com/bphoto/E3qkt6eDl0kaH-22iPd48w/ls.jpg,https://www.yelp.com/biz/harbor-brakes-and-auto-repair-garden-grove-3?osq=Auto+Services&override_cta=Get+pricing
PDUXQEzgO2lmyRI_F5fecA,Guero's Auto Repair,4.6,37,3300 Westminster Ave,33.75958915452159,-117.91445695330464,"['Auto Repair', 'Tires', 'Auto Parts & Supplies']",California,Santa-Ana,False,https://s3-media0.fl.yelpcdn.com/bphoto/JZQ93bkKCVOnRGxxjetVpg/ls.jpg,https://www.yelp.com/biz/gueros-auto-repair-santa-ana-2?osq=Auto+Services&override_cta=Get+pricing
VICi1SOoSjKMlGQWkf1fYg,Ramos Tires & Auto Repair,4.6,203,415 N Bristol St,33.748625325404,-117.884774694611,"['Tires', 'Auto Repair', 'Oil Change Stations']",California,Santa-Ana,False,https://s3-media0.fl.yelpcdn.com/bphoto/u9r4UQKo9j3uGsQ0-arf4Q/ls.jpg,https://www.yelp.com/biz/ramos-tires-and-auto-repair-santa-ana?osq=Auto+Services&override_cta=Get+pricing
EwIXGpH83hL_vrozrwIDmQ,A&J's Auto Garage,5.0,38,1002 South Hathaway St,33.7359578,-117.8530406,['Auto Repair'],California,Santa-Ana,False,https://s3-media0.fl.yelpcdn.com/bphoto/QHqzpkuIuTpL0ruWOZTIcA/ls.jpg,https://www.yelp.com/biz/a-and-js-auto-garage-santa-ana?osq=Auto+Services&override_cta=Get+pricing
WsOdx3HSgrgr0zBwX7b5kg,J&C Tires & Service,4.9,92,914 S Harbor Blvd,33.7354195,-117.920596,"['Tires', 'Oil Change Stations', 'Auto Repair']",California,Santa-Ana,False,https://s3-media0.fl.yelpcdn.com/bphoto/YcCkEvfqQoMhE6Gt6l8Lmg/ls.jpg,https://www.yelp.com/biz/j-and-c-tires-and-service-santa-ana-2?osq=Auto+Services&override_cta=Get+pricing
ae8y9O5ZpVv117Kn91SHRA,H & A Auto,4.9,184,1366 Logan Ave,33.6791885,-117.9142796,"['Auto Repair', 'Oil Change Stations', 'Transmission Repair']",California,Santa-Ana,False,https://s3-media0.fl.yelpcdn.com/bphoto/hr1VdCBLsWwJBtK8gXVJ1Q/ls.jpg,https://www.yelp.com/biz/h-and-a-auto-costa-mesa?osq=Auto+Services&override_cta=Get+pricing
TTXj3kjFytV-yeeNGhIi6g,CAL Auto Service,5.0,128,4320 Westminster Ave,33.759536,-117.927012,"['Auto Repair', 'Oil Change Stations', 'Transmission Repair']",California,Santa-Ana,False,https://s3-media0.fl.yelpcdn.com/bphoto/rVFxeU6WgDe76mvTPeybsQ/ls.jpg,https://www.yelp.com/biz/cal-auto-service-santa-ana?osq=Auto+Services&override_cta=Get+pricing
wiQ8t7Fij2mhGTR2874t8w,Chapman Auto Repair of Orange,4.6,981,807 W Chapman Ave,33.78812841889797,-117.8609055,"['Auto Repair', 'Smog Check Stations', 'Oil Change Stations']",California,Santa-Ana,False,https://s3-media0.fl.yelpcdn.com/bphoto/fWPIaJH4DyckeeoDDjSoIg/ls.jpg,https://www.yelp.com/biz/chapman-auto-repair-of-orange-orange-4?osq=Auto+Services&override_cta=Get+pricing
XmDTtdbtmThIYf7Nq53mlQ,Purrfect Auto Service,4.4,77,16780 Harbor Blvd,33.7202295,-117.9199949,"['Auto Repair', 'Smog Check Stations', 'Oil Change Stations']",California,Santa-Ana,False,https://s3-media0.fl.yelpcdn.com/bphoto/mXbs8-x006VeGOrR1eV6Hg/ls.jpg,https://www.yelp.com/biz/purrfect-auto-service-fountain-valley?osq=Auto+Services&override_cta=Get+pricing
Hlg3d2SkHfzqizYK4ByOzw,Beemer & Benz,4.8,324,2606 S Harbor Blvd,33.7127259,-117.920432,"['Auto Repair', 'Tires', 'Oil Change Stations']",California,Santa-Ana,False,https://s3-media0.fl.yelpcdn.com/bphoto/kRVHhAWmYs2Zjbm5wiD2aQ/ls.jpg,https://www.yelp.com/biz/beemer-and-benz-santa-ana?osq=Auto+Services&override_cta=Get+pricing
HXEKCAiY0X3kps0RN7sIJQ,Julio and Sons Auto,4.4,11,1205 W 5th St,33.7490226,-117.8831615,['Auto Repair'],California,Santa-Ana,False,https://s3-media0.fl.yelpcdn.com/bphoto/i0esndX655WCwj7rNFV_XQ/ls.jpg,https://www.yelp.com/biz/julio-and-sons-auto-santa-ana?osq=Auto+Services&override_cta=Get+pricing
agMG5neuJzc4bMOP5JSJDg,The Tire Center,4.2,146,100 E Dyer Rd,33.7086318,-117.8679997,"['Auto Repair', 'Oil Change Stations', 'Tires']",California,Santa-Ana,False,https://s3-media0.fl.yelpcdn.com/bphoto/cRGSJ0GH9JrMwaiTa5Ax6w/ls.jpg,https://www.yelp.com/biz/the-tire-center-santa-ana-6?osq=Auto+Services&override_cta=Get+pricing
XUrzWN1YC9FHso5VqKxy2w,Euro Car Doctor,4.8,198,3070 Main St,33.67769310520283,-117.83478909325336,"['Auto Repair', 'Oil Change Stations']",California,Santa-Ana,False,https://s3-media0.fl.yelpcdn.com/bphoto/qMRRSoDQ82WbfoWZ4MyRmQ/ls.jpg,https://www.yelp.com/biz/euro-car-doctor-irvine-2?osq=Auto+Services&override_cta=Get+pricing
Mx749E36M-1XXZOs9ZMMXw,J Sanchez Auto Repair,5.0,1,201 N Fairview St,33.746211,-117.9047382,"['Auto Repair', 'Towing', 'Transmission Repair']",California,Santa-Ana,False,https://s3-media0.fl.yelpcdn.com/assets/srv0/yelp_styleguide/4f30aa60678e/assets/img/default_avatars/business_large_square.png,https://www.yelp.com/biz/j-sanchez-auto-repair-santa-ana?osq=Auto+Services&override_cta=Get+pricing
4ugih7E4TMqJbs9Ol6SNuQ,JC Auto Service,4.4,13,3400 W 5th St,33.748634,-117.91503,['Auto Repair'],California,Santa-Ana,False,https://s3-media0.fl.yelpcdn.com/bphoto/R7EorOy0c2hgeUjABUfLrw/ls.jpg,https://www.yelp.com/biz/jc-auto-service-santa-ana?osq=Auto+Services&override_cta=Get+pricing
e3XRqCCTh50kY5gOKwTW-A,Imperial Auto Service,5.0,33,3917 W Segerstrom Ave,33.709194,-117.9209183,['Auto Repair'],California,Santa-Ana,False,https://s3-media0.fl.yelpcdn.com/bphoto/uMm_n1cXPl2Ct23eOoWW8Q/ls.jpg,https://www.yelp.com/biz/imperial-auto-service-santa-ana?osq=Auto+Services&override_cta=Get+pricing
Ut3gHGOGyoLxYqU-vqGBwg,J & A Auto Repair,4.5,81,1506 S Lyon St,33.7281883,-117.8454751,"['Auto Repair', 'Oil Change Stations', 'Towing']",California,Santa-Ana,False,https://s3-media0.fl.yelpcdn.com/bphoto/AVrB7UVrJBLhAYwVPQnsWw/ls.jpg,https://www.yelp.com/biz/j-and-a-auto-repair-santa-ana?osq=Auto+Services&override_cta=Get+pricing
1MhECler_583EhjaZZCCsw,Custom Auto Service,5.0,3,302 French St,33.74729,-117.864818,['Auto Repair'],California,Santa-Ana,False,https://s3-media0.fl.yelpcdn.com/bphoto/OYk-xC3_o-R6s6Cwm47JPg/ls.jpg,https://www.yelp.com/biz/custom-auto-service-santa-ana?osq=Auto+Services&override_cta=Get+pricing
9n6ELJ9nxvLZ0GYQ7yZbLQ,A OK Muffler & Auto Service,4.0,44,2422 W 17th St,33.7598737080892,-117.901527722677,['Auto Repair'],California,Santa-Ana,False,https://s3-media0.fl.yelpcdn.com/bphoto/DEMwgo9oCFfd9PN3qgF5EQ/ls.jpg,https://www.yelp.com/biz/a-ok-muffler-and-auto-service-santa-ana-6?osq=Auto+Services&override_cta=Get+pricing
FMG0E8OZ5ByFq5kKvV0CyA,Coast MBZ BMW Service,5.0,113,3042 Enterprise St,33.682167659694834,-117.88204981778794,['Auto Repair'],California,Santa-Ana,False,https://s3-media0.fl.yelpcdn.com/bphoto/3h8QjpTzyePThOg0dkNmaA/ls.jpg,https://www.yelp.com/biz/coast-mbz-bmw-service-costa-mesa?osq=Auto+Services&override_cta=Get+pricing
MMwpV6HIAfOL75nS4-k0yQ,Xpress Auto Service,5.0,2,509 N Bristol St,33.7492814,-117.8848409,"['Auto Repair', 'Tires']",California,Santa-Ana,False,https://s3-media0.fl.yelpcdn.com/bphoto/Irp9aQnyxUeQ9y0UULaVxw/ls.jpg,https://www.yelp.com/biz/xpress-auto-service-santa-ana?osq=Auto+Services&override_cta=Get+pricing
niEascBKrzQ-S6D3p3RWrw,Franks Performance,4.6,9,8012 Ebbtide Cir,33.6634227,-117.9879447,['Auto Repair'],California,Santa-Ana,False,https://s3-media0.fl.yelpcdn.com/bphoto/fU-xHx95LmPWNiE59xSh1A/ls.jpg,https://www.yelp.com/biz/franks-performance-huntington-beach?osq=Auto+Services&override_cta=Get+pricing
tCIOlVpTdgd2fjd4EHkeOQ,Electron Automotive,4.7,218,969 N Batavia St,33.803164,-117.8607333,"['Auto Repair', 'Hybrid Car Repair', 'Oil Change Stations']",California,Santa-Ana,False,https://s3-media0.fl.yelpcdn.com/bphoto/OAQcC_pAdr_QBpDFpVCQYA/ls.jpg,https://www.yelp.com/biz/electron-automotive-orange?osq=Auto+Services&override_cta=Get+pricing
X-WqyQh2ucivrNkoAb5Ddw,Absolute Auto Repair,4.5,28,1600 N Grand Ave,33.7587489,-117.8524702,['Auto Repair'],California,Santa-Ana,False,https://s3-media0.fl.yelpcdn.com/bphoto/dZcI7224lnUVREFj8wTlGw/ls.jpg,https://www.yelp.com/biz/absolute-auto-repair-santa-ana?osq=Auto+Services&override_cta=Get+pricing
4ohP_Kc2lvzm0M2AZ9QyFw,Becker Tire & Service Center,4.8,323,1100 N Tustin,33.805710820602364,-117.8361544,"['Tires', 'Auto Repair', 'Wheel & Rim Repair']",California,Santa-Ana,False,https://s3-media0.fl.yelpcdn.com/bphoto/PdvxCCayI_-kfMiMXfm9qA/ls.jpg,https://www.yelp.com/biz/becker-tire-and-service-center-orange?osq=Auto+Services&override_cta=Get+pricing
3akbA5YAMDfMQB85lQvUkQ,Rudy's Jaguar Service,4.6,25,928 W 1st St,33.7452285,-117.8776076,['Auto Repair'],California,Santa-Ana,False,https://s3-media0.fl.yelpcdn.com/bphoto/QAks9WGakWTsJinZH4bARA/ls.jpg,https://www.yelp.com/biz/rudys-jaguar-service-santa-ana?osq=Auto+Services&override_cta=Get+pricing
DdjmFrVm0r2953mbZUcrmA,SSR Performance,4.8,337,1712 Langley Ave,33.696132836427346,-117.84791634479753,"['Auto Customization', 'Auto Repair', 'Body Shops']",California,Santa-Ana,False,https://s3-media0.fl.yelpcdn.com/bphoto/fR3glU2T5Y-cw-ZIMHTR_w/ls.jpg,https://www.yelp.com/biz/ssr-performance-irvine-2?osq=Auto+Services&override_cta=Get+pricing
zXfnM3JCFxJFwAuAtmB6ng,James Auto Center,4.5,257,10711 Garden Grove Blvd,33.7744444,-117.9458897,"['Auto Repair', 'Tires']",California,Santa-Ana,False,https://s3-media0.fl.yelpcdn.com/bphoto/KMeld_O6Re0TvRO5Pin0Aw/ls.jpg,https://www.yelp.com/biz/james-auto-center-garden-grove-4?osq=Auto+Services&override_cta=Get+pricing
D2TAk2xZ1DoCFXoJC3xFyQ,Vina Auto Repair And Services,5.0,53,313 S Harbor Blvd,33.7427914,-117.9194537,['Auto Repair'],California,Santa-Ana,False,https://s3-media0.fl.yelpcdn.com/bphoto/elM_buMIe8-Sg7o5FHF-Ug/ls.jpg,https://www.yelp.com/biz/vina-auto-repair-and-services-santa-ana?osq=Auto+Services&override_cta=Get+pricing
IC52ka2HA_VTL5AM2sdQHA,Best Care Auto,4.8,184,11362 Westminster Ave,33.7587077,-117.9308685,"['Auto Repair', 'Auto Customization', 'Tires']",California,Santa-Ana,False,https://s3-media0.fl.yelpcdn.com/bphoto/8d6DG1FsL4kwKBUTxda0ww/ls.jpg,https://www.yelp.com/biz/best-care-auto-garden-grove?osq=Auto+Services&override_cta=Get+pricing
sC8rcOpiVLz9ieo7WaoZ-g,Quality Auto Specialist,4.3,11,2517 S Main St,33.7131124,-117.8670856,['Auto Repair'],California,Santa-Ana,False,https://s3-media0.fl.yelpcdn.com/bphoto/Lh5ITtedwxR0GmHmh0efww/ls.jpg,https://www.yelp.com/biz/quality-auto-specialist-santa-ana?osq=Auto+Services&override_cta=Get+pricing
uBKVgZwXOTaT2Z7MO4VDdg,Fox Auto Care,4.7,116,1311 E Saint Gertrude Pl,33.7198255,-117.8533505,"['Auto Repair', 'Tires', 'Oil Change Stations']",California,Santa-Ana,False,https://s3-media0.fl.yelpcdn.com/bphoto/YiXcZEE_Ty57R8B1bzs06g/ls.jpg,https://www.yelp.com/biz/fox-auto-care-santa-ana-2?osq=Auto+Services&override_cta=Get+pricing
P3fNC6H1y9gdR3gP7CgWhg,Steps Auto,5.0,28,1202 E Walnut St,33.7439379,-117.8525776,['Auto Repair'],California,Santa-Ana,False,https://s3-media0.fl.yelpcdn.com/bphoto/AQJPR11BXIN3U2q7OJj61Q/ls.jpg,https://www.yelp.com/biz/steps-auto-santa-ana?osq=Auto+Services&override_cta=Get+pricing
Ee6EL47SuXqmEzGz1iKkUw,Tashmo Auto Center,4.7,386,2015 N Tustin Ave,33.7639859546476,-117.83570766449,"['Auto Repair', 'Transmission Repair', 'Oil Change Stations']",California,Santa-Ana,False,https://s3-media0.fl.yelpcdn.com/bphoto/RL1ATXha2ytsCekL3oA8lQ/ls.jpg,https://www.yelp.com/biz/tashmo-auto-center-santa-ana-2?osq=Auto+Services&override_cta=Get+pricing
oMNCVkG4KMVNcF7RzbleCQ,Anaheim Auto Repair and Muffler Care,4.7,570,2583 W Ball Rd,33.8179809,-117.9754897,"['Auto Repair', 'Oil Change Stations', 'Transmission Repair']",California,Santa-Ana,False,https://s3-media0.fl.yelpcdn.com/bphoto/NwlJ104ZisCnRoAfgab2vQ/ls.jpg,https://www.yelp.com/biz/anaheim-auto-repair-and-muffler-care-anaheim?osq=Auto+Services&override_cta=Get+pricing
z-dWVWRqdbf9-OMtXfqJhA,Pomeroy's Muffler Shop,4.3,163,315 S Main St,33.7429549,-117.8671972,['Auto Repair'],California,Santa-Ana,False,https://s3-media0.fl.yelpcdn.com/bphoto/lN2-cUsm-ZFOiGg1qalASg/ls.jpg,https://www.yelp.com/biz/pomeroys-muffler-shop-santa-ana?osq=Auto+Services&override_cta=Get+pricing
Yoi5njaTNSh39rzo-ClK6g,Jacks German Auto Service,4.9,68,16650 Harbor Blvd,33.7214292,-117.9191657,"['Auto Repair', 'Oil Change Stations']",California,Santa-Ana,False,https://s3-media0.fl.yelpcdn.com/bphoto/Q3hE94I7Vyi82ht0hAMKqg/ls.jpg,https://www.yelp.com/biz/jacks-german-auto-service-fountain-valley-3?osq=Auto+Services&override_cta=Get+pricing
KjUvC-dbniVmnfxcNj3EOw,Nava's Auto Service,4.6,21,1135 W 1st St,33.7457868,-117.8824453,['Auto Repair'],California,Santa-Ana,False,https://s3-media0.fl.yelpcdn.com/bphoto/XS6SRxalnDYbeT3FK7r5bg/ls.jpg,https://www.yelp.com/biz/navas-auto-service-santa-ana?osq=Auto+Services&override_cta=Get+pricing
wso3n8FeKb6lImPPkqIosQ,Prestige Automotive,4.7,90,3013 Vine St,33.9866014,-117.3635384,['Auto Repair'],California,Riverside,False,https://s3-media0.fl.yelpcdn.com/bphoto/bfxDzww-Ncnl6zeHTglEIQ/ls.jpg,https://www.yelp.com/biz/prestige-automotive-riverside?osq=Auto+Services&override_cta=Get+pricing
2qqKJBBMWEz92_46rAcC2g,Speedy Auto Repair & Electric,4.8,304,23930 Sunnymead Blvd,33.9393419,-117.2451749,"['Auto Repair', 'Oil Change Stations', 'Transmission Repair']",California,Riverside,False,https://s3-media0.fl.yelpcdn.com/bphoto/lvbs64V7q5lyqrSs77g6pQ/ls.jpg,https://www.yelp.com/biz/speedy-auto-repair-and-electric-moreno-valley-2?osq=Auto+Services&override_cta=Get+pricing
OdDXzY8SVHYFksgj-EoMBA,Wholesale Tire & Automotive,4.9,302,1663 Industrial Ave,33.9060544,-117.5631993,['Auto Repair'],California,Riverside,False,https://s3-media0.fl.yelpcdn.com/bphoto/H7ExfGdWaOFbzksn-_1p3A/ls.jpg,https://www.yelp.com/biz/wholesale-tire-and-automotive-norco?osq=Auto+Services&override_cta=Get+pricing
5mGE-YLcDV0lVBgVJunFvA,ACE Auto Service,5.0,25,10180 Hole Ave,33.9140526,-117.4605114,['Auto Repair'],California,Riverside,False,https://s3-media0.fl.yelpcdn.com/bphoto/dmQzK1u8qTckeEF3GEoiZQ/ls.jpg,https://www.yelp.com/biz/ace-auto-service-riverside?osq=Auto+Services&override_cta=Get+pricing
qZPskWxd0ApO3bOvr1yIVA,Bob's Auto Service,5.0,24,3823 Jurupa Ave,33.961160735091255,-117.3923225,['Auto Repair'],California,Riverside,False,https://s3-media0.fl.yelpcdn.com/bphoto/zSJNOwlew0-SndlVnW_Zqw/ls.jpg,https://www.yelp.com/biz/bobs-auto-service-riverside-2?osq=Auto+Services&override_cta=Get+pricing
R6KDQUYgBvFM09HE2zG_8A,C & S Auto & Truck Repair,4.9,151,10521 Limonite Ave,33.9758187,-117.5143819,"['Auto Repair', 'Transmission Repair']",California,Riverside,False,https://s3-media0.fl.yelpcdn.com/bphoto/OHmni6gvrD7rysefAnrIpw/ls.jpg,https://www.yelp.com/biz/c-and-s-auto-and-truck-repair-mira-loma?osq=Auto+Services&override_cta=Get+pricing
mH7YEkKf-opoLjga4fPz3Q,Champion Auto Service,4.8,148,10206 Hole Ave,33.9138925,-117.4614068,"['Auto Repair', 'Auto Parts & Supplies', 'Oil Change Stations']",California,Riverside,False,https://s3-media0.fl.yelpcdn.com/bphoto/lh8rEfP7v95zmuLUaME8YQ/ls.jpg,https://www.yelp.com/biz/champion-auto-service-riverside-2?osq=Auto+Services&override_cta=Get+pricing
OGMSV6adH1XbSfVe5W3cOA,Magnolia Alignment,5.0,1,3886 Merrill Ave,33.9563271,-117.3952112,['Auto Repair'],California,Riverside,False,https://s3-media0.fl.yelpcdn.com/bphoto/IgQooQazVmYjpx6Ings2eg/ls.jpg,https://www.yelp.com/biz/magnolia-alignment-riverside?osq=Auto+Services&override_cta=Get+pricing
wPj3lTd3Rm-9REKEPHRCBw,Simply Toyota,4.7,96,1195 W Park Ave,34.0589292,-117.1997132,"['Auto Repair', 'Transmission Repair']",California,Riverside,False,https://s3-media0.fl.yelpcdn.com/bphoto/zRQ6MAwKcxb5crSWENxQkw/ls.jpg,https://www.yelp.com/biz/simply-toyota-redlands-6?osq=Auto+Services&override_cta=Get+pricing
_FkPaEbFjB3Iqnkin9kQDg,McNair's Auto Repair,4.5,103,6789 Brockton Ave,33.950095,-117.3971896,"['Auto Repair', 'Oil Change Stations', 'Tires']",California,Riverside,False,https://s3-media0.fl.yelpcdn.com/bphoto/4F2Reyd1KgAksiRkl4JRUQ/ls.jpg,https://www.yelp.com/biz/mcnairs-auto-repair-riverside?osq=Auto+Services&override_cta=Get+pricing
5EELTp16k-0nnc-lqU1VOQ,Auto Technik Carcare,4.8,431,5260 Las Flores Dr,33.98234834799234,-117.6896848777898,['Auto Repair'],California,Riverside,False,https://s3-media0.fl.yelpcdn.com/bphoto/bNXQb2DI6qb9jf7VTcSW9w/ls.jpg,https://www.yelp.com/biz/auto-technik-carcare-chino-2?osq=Auto+Services&override_cta=Get+pricing
rNqf_1MV0MHK1pfAzB7Sag,A&R Auto Service,5.0,3,3957 Alamo St,34.0124157,-117.3642641,['Auto Repair'],California,Riverside,False,https://s3-media0.fl.yelpcdn.com/bphoto/P8yCHfVzOmG5aCSb48MTvQ/ls.jpg,https://www.yelp.com/biz/a-and-r-auto-service-riverside-5?osq=Auto+Services&override_cta=Get+pricing
2lw6J2pa0wxZzlOSuU5eBQ,Merrill's Smog and Repair,4.9,497,16600 Merrill Ave,34.09239,-117.44177,"['Smog Check Stations', 'Oil Change Stations', 'Auto Repair']",California,Riverside,False,https://s3-media0.fl.yelpcdn.com/bphoto/af_m0T5Jl2e8QRROKXaZNw/ls.jpg,https://www.yelp.com/biz/merrills-smog-and-repair-fontana?osq=Auto+Services&override_cta=Get+pricing
jvgZrfB2UHzgWK3Xak2bSg,Mike's Auto Repair,4.6,119,23848 Sunnymead Blvd,33.9392665,-117.2467244,"['Auto Repair', 'Oil Change Stations']",California,Riverside,False,https://s3-media0.fl.yelpcdn.com/bphoto/RZskQb0BgbCutbEug0mcbA/ls.jpg,https://www.yelp.com/biz/mikes-auto-repair-moreno-valley-2?osq=Auto+Services&override_cta=Get+pricing
bRibHhfA8JE8UBQ2uPlHEg,Los Reyes Automotive,5.0,5,3159 Kluk Ln,34.018297462790606,-117.3418844,"['Auto Repair', 'Tires', 'Oil Change Stations']",California,Riverside,False,https://s3-media0.fl.yelpcdn.com/bphoto/TmZEq1rEaJ_K8UoUVxcslg/ls.jpg,https://www.yelp.com/biz/los-reyes-automotive-riverside?osq=Auto+Services&override_cta=Get+pricing
RCdtti39dXsB_ZqkyXaDxw,A Import Specialist,4.3,30,3488 Arlington Ave,33.9461413182252,-117.387446165085,['Auto Repair'],California,Riverside,False,https://s3-media0.fl.yelpcdn.com/bphoto/c3tmLK4BZjZU_zq9nYGCSQ/ls.jpg,https://www.yelp.com/biz/a-import-specialist-riverside?osq=Auto+Services&override_cta=Get+pricing
MegcEEuEroxVnVWJ2u6ROw,Vehicle Repair Center,4.8,58,2409 Main St,33.9942866,-117.3666395,"['Auto Repair', 'Oil Change Stations', 'Smog Check Stations']",California,Riverside,False,https://s3-media0.fl.yelpcdn.com/bphoto/MlGZZuV5lhGwy_iKkXLKcg/ls.jpg,https://www.yelp.com/biz/vehicle-repair-center-riverside-2?osq=Auto+Services&override_cta=Get+pricing
5Od1JWaSP3BqjcXDpR4TGg,Super Auto Repair,4.5,57,5655 Van Buren Blvd,33.94062494039569,-117.45342612087514,"['Auto Repair', 'Oil Change Stations', 'Car Inspectors']",California,Riverside,False,https://s3-media0.fl.yelpcdn.com/bphoto/QXPlRDdrcVPlV-VA3fGoeQ/ls.jpg,https://www.yelp.com/biz/super-auto-repair-riverside-2?osq=Auto+Services&override_cta=Get+pricing
Pl4bmsUGpM_t3FdDDSt-ig,Ace Auto Clinic,4.4,121,10050 Arlington Ave,33.9458425,-117.4734421,"['Auto Repair', 'Oil Change Stations', 'Transmission Repair']",California,Riverside,False,https://s3-media0.fl.yelpcdn.com/bphoto/w-a07QDdIUzQrOGD5rK8qA/ls.jpg,https://www.yelp.com/biz/ace-auto-clinic-riverside?osq=Auto+Services&override_cta=Get+pricing
N-dPPJI0GaycMyFRPBx8Aw,Riverside Complete Automotive Repair,4.3,11,7200 Arlington Ave,33.944721,-117.4517365,['Auto Repair'],California,Riverside,False,https://s3-media0.fl.yelpcdn.com/bphoto/xfao5FtyM6dRyacP4pYQ5g/ls.jpg,https://www.yelp.com/biz/riverside-complete-automotive-repair-riverside-2?osq=Auto+Services&override_cta=Get+pricing
sHxjyVHq00QX_NcWNoQM6A,Sal's Garage 909,4.4,203,17338 Foothill Blvd,34.1071523,-117.426241,"['Auto Repair', 'Transmission Repair']",California,Riverside,False,https://s3-media0.fl.yelpcdn.com/bphoto/NeivYDgF5nQyL-yvBHy0hQ/ls.jpg,https://www.yelp.com/biz/sals-garage-909-fontana-3?osq=Auto+Services&override_cta=Get+pricing
ul6cAQ6T0ULAAYcGWjUKUQ,Woodcrest Auto Service,4.3,107,18400 Van Buren Blvd,33.88772,-117.3420451,"['Auto Repair', 'Smog Check Stations', 'Tires']",California,Riverside,False,https://s3-media0.fl.yelpcdn.com/bphoto/ZhiJHNvhC1rHNNN8-5S3Sg/ls.jpg,https://www.yelp.com/biz/woodcrest-auto-service-riverside-2?osq=Auto+Services&override_cta=Get+pricing
BXr22XHHIDYmk3nWVIfX_w,DK Automotive,4.6,18,22425 Alessandro Blvd,33.91630184533757,-117.2716302,"['Auto Repair', 'Oil Change Stations', 'Transmission Repair']",California,Riverside,False,https://s3-media0.fl.yelpcdn.com/bphoto/_Di7zcWrr_3ogR7-R5_Mhg/ls.jpg,https://www.yelp.com/biz/dk-automotive-moreno-valley?osq=Auto+Services&override_cta=Get+pricing
1JKwzULNDTkzXnyURUZe9Q,Toyotek,4.9,160,8520 8th St,34.09238,-117.619246,"['Auto Repair', 'Smog Check Stations']",California,Riverside,False,https://s3-media0.fl.yelpcdn.com/bphoto/uyKB_fmHtMer0pI9bYDKaQ/ls.jpg,https://www.yelp.com/biz/toyotek-rancho-cucamonga-9?osq=Auto+Services&override_cta=Get+pricing
o8HO1n_qWHnfOzwVvzoyGQ,Perris Auto Repair Center,4.2,141,5168 Western Way,33.86545150621801,-117.2588274,"['Auto Repair', 'Tires', 'Smog Check Stations']",California,Riverside,False,https://s3-media0.fl.yelpcdn.com/bphoto/QVJGDo6A9EuJDf1C3-xO1g/ls.jpg,https://www.yelp.com/biz/perris-auto-repair-center-perris?osq=Auto+Services&override_cta=Get+pricing
jqqB0z0Jq3uzjjrE3adfLg,Prostop Automotive Wheels & Tires,4.8,179,1703 E Washington St,34.048939,-117.299875,"['Auto Repair', 'Oil Change Stations']",California,Riverside,False,https://s3-media0.fl.yelpcdn.com/bphoto/umy4GqKNQ1jiH6UFmu6vhg/ls.jpg,https://www.yelp.com/biz/prostop-automotive-wheels-and-tires-colton?osq=Auto+Services&override_cta=Get+pricing
p599rCe3zOeHwgZoQwEF9g,Tire Choice Auto Service Centers,3.7,97,6072 Camino Real,33.9776027,-117.4508462,"['Auto Repair', 'Oil Change Stations', 'Tires']",California,Riverside,False,https://s3-media0.fl.yelpcdn.com/bphoto/vYd14P0IHxGk22LWCnz-Gw/ls.jpg,https://www.yelp.com/biz/tire-choice-auto-service-centers-riverside-2?osq=Auto+Services&override_cta=Get+pricing
QAD00BsVapl63HIXVrl4UQ,Colton Auto Electric & Repair,5.0,13,464 Fogg St,34.052236,-117.3329759,"['Auto Repair', 'Transmission Repair']",California,Riverside,False,https://s3-media0.fl.yelpcdn.com/bphoto/3GJPeJU9nH17VKxEese-xg/ls.jpg,https://www.yelp.com/biz/colton-auto-electric-and-repair-colton?osq=Auto+Services&override_cta=Get+pricing
vNmKIgcoc8kur4vZeDVGXg,Ed Martin Garage,4.0,21,6672 Indiana Ave,33.9446687,-117.3888552,"['Auto Repair', 'Transmission Repair']",California,Riverside,False,https://s3-media0.fl.yelpcdn.com/bphoto/-g7bvY1JbgTMgY_UeZFpAQ/ls.jpg,https://www.yelp.com/biz/ed-martin-garage-riverside?osq=Auto+Services&override_cta=Get+pricing
nfNAZmJg1IvU_ysGNvlNLA,Autotech,3.9,67,1735 3rd St,33.9833878,-117.3492636,"['Auto Repair', 'Smog Check Stations', 'Wheel & Rim Repair']",California,Riverside,False,https://s3-media0.fl.yelpcdn.com/bphoto/0awz-PkChVAgkNsq1QG4sg/ls.jpg,https://www.yelp.com/biz/autotech-riverside-2?osq=Auto+Services&override_cta=Get+pricing
WTE9p1nW-KTWUDKtGQNIUA,Super Auto Repair,5.0,1,5655 Van Buren Blvd,33.94062494039569,-117.45342612087514,['Auto Repair'],California,Riverside,False,https://s3-media0.fl.yelpcdn.com/bphoto/h8PyN0KsWo_v8ic4AkC_zw/ls.jpg,https://www.yelp.com/biz/super-auto-repair-riverside-3?osq=Auto+Services&override_cta=Get+pricing
6kj2Ql9bn1LDP9L9BdziBQ,Norco Auto Excellence,4.9,42,1645 Industrial Ave,33.90589898687252,-117.56293263121783,['Auto Repair'],California,Riverside,False,https://s3-media0.fl.yelpcdn.com/bphoto/R5UQhqsPqJt-sHnHdSfcTA/ls.jpg,https://www.yelp.com/biz/norco-auto-excellence-norco?osq=Auto+Services&override_cta=Get+pricing
C55qCmkVq3pOoVSYPuh4Bg,Kormodiv,4.9,97,6750 Central Ave.,33.9547151,-117.4430996,"['Auto Repair', 'Auto Parts & Supplies']",California,Riverside,False,https://s3-media0.fl.yelpcdn.com/bphoto/LqjzFcSMgP_NheUnJNL9gA/ls.jpg,https://www.yelp.com/biz/kormodiv-riverside?osq=Auto+Services&override_cta=Get+pricing
IGkY8LWzW6BAQWpW0Ryatg,Hock's Japanese Car Specialists,4.6,93,45 Rio Rancho Rd,34.034237,-117.754438,"['Auto Repair', 'Oil Change Stations', 'Transmission Repair']",California,Riverside,False,https://s3-media0.fl.yelpcdn.com/bphoto/l9gQN9lQq-O-YKqa9OeGqw/ls.jpg,https://www.yelp.com/biz/hocks-japanese-car-specialists-pomona?osq=Auto+Services&override_cta=Get+pricing
pu3T3hsJwH-hgoTHxl5BvQ,G & P Auto Repair,4.8,48,6050 Tyler St,33.94358880000001,-117.4784337,"['Auto Repair', 'Smog Check Stations']",California,Riverside,False,https://s3-media0.fl.yelpcdn.com/bphoto/TenmVWVDYZRCMwiJLqoLDA/ls.jpg,https://www.yelp.com/biz/g-and-p-auto-repair-riverside?osq=Auto+Services&override_cta=Get+pricing
FHAtdHrnYAnzh998Pu-iSw,Discount Auto and Tire service,4.4,351,746 E Citrus Ave,34.055225,-117.174399,"['Auto Repair', 'Tires', 'Smog Check Stations']",California,Riverside,False,https://s3-media0.fl.yelpcdn.com/bphoto/zt0IvxCWL7iKXLQ07PYi6Q/ls.jpg,https://www.yelp.com/biz/discount-auto-and-tire-service-redlands-8?osq=Auto+Services&override_cta=Get+pricing
WwBI775gQQ1_PBvdjHv3pQ,Enzo's Garage,4.9,30,9377 E 9th St,34.0952957,-117.6009876,['Auto Repair'],California,Riverside,False,https://s3-media0.fl.yelpcdn.com/bphoto/kFUkEDdJdAfAIdaVY0JCtg/ls.jpg,https://www.yelp.com/biz/enzos-garage-rancho-cucamonga?osq=Auto+Services&override_cta=Get+pricing
4FJRoItJWujANG6RTmnchQ,Premier West Gears,4.7,151,12490 Magnolia Ave,33.8882145,-117.5012306,['Auto Repair'],California,Riverside,False,https://s3-media0.fl.yelpcdn.com/bphoto/alxu1Tj91Pee4nPsSVZeQw/ls.jpg,https://www.yelp.com/biz/premier-west-gears-riverside-4?osq=Auto+Services&override_cta=Get+pricing
sSGTs0aP8hq0xtpyrBeHSQ,German Car Garage,4.9,165,25721 Obrero Dr,33.6187969353139,-117.68206434696953,['Auto Repair'],California,Riverside,False,https://s3-media0.fl.yelpcdn.com/bphoto/kE2-vh7JiW-KJV9Jb1gz4Q/ls.jpg,https://www.yelp.com/biz/german-car-garage-mission-viejo-4?osq=Auto+Services&override_cta=Get+pricing
XM3cZkJNyyrp8CX-ZLjopw,Rubidoux Tire and Brake,4.5,137,5949 Mission Blvd,34.002289012477895,-117.4168401,"['Tires', 'Auto Repair', 'Oil Change Stations']",California,Riverside,False,https://s3-media0.fl.yelpcdn.com/bphoto/ySHsZX7C9xgea_WobWTGZA/ls.jpg,https://www.yelp.com/biz/rubidoux-tire-and-brake-jurupa-valley-2?osq=Auto+Services&override_cta=Get+pricing
-rVIELNC6adaUAn3WTM8zw,Reliant Family Auto,4.7,13,16045 Wood Rd,33.8865801,-117.3319536,['Auto Repair'],California,Riverside,False,https://s3-media0.fl.yelpcdn.com/bphoto/2jE5i1qhRuWMcJEW7DpLjA/ls.jpg,https://www.yelp.com/biz/reliant-family-auto-riverside?osq=Auto+Services&override_cta=Get+pricing
lpVowafzECaycZF-6oJUAw,Arlington Ave Auto Repair,4.1,17,8651 Indiana Ave,33.923131,-117.426545,['Auto Repair'],California,Riverside,False,https://s3-media0.fl.yelpcdn.com/bphoto/y9VimD7wzcBT3F1dszjM_g/ls.jpg,https://www.yelp.com/biz/arlington-ave-auto-repair-riverside?osq=Auto+Services&override_cta=Get+pricing
3Nww6wAjSYJ9txGrAZ-Dwg,SpeedoGarage,5.0,2,27247 Fagler St,33.7254039,-117.1925456,['Auto Repair'],California,Riverside,False,https://s3-media0.fl.yelpcdn.com/bphoto/nFFj39D0M4WiTxuA0P1K7w/ls.jpg,https://www.yelp.com/biz/speedogarage-sun-city?osq=Auto+Services&override_cta=Get+pricing
0nBkmWN4cg4lc8bxHbZnuw,Dr J's Mobile Mechanics,5.0,6,9981 52nd St,33.9929298,-117.501093,['Auto Repair'],California,Riverside,False,https://s3-media0.fl.yelpcdn.com/bphoto/AD_k7RYVMVZQUc-ckALD6g/ls.jpg,https://www.yelp.com/biz/dr-js-mobile-mechanics-riverside?osq=Auto+Services&override_cta=Get+pricing
O4NNmLMAnhOfT0fXu7mFoQ,Eddie's Auto Repair,4.3,64,755 W Rialto Ave,34.0990825,-117.3846501,"['Auto Repair', 'Oil Change Stations', 'Transmission Repair']",California,Riverside,False,https://s3-media0.fl.yelpcdn.com/bphoto/41NdxTPB3meyg_I0UmXmZA/ls.jpg,https://www.yelp.com/biz/eddies-auto-repair-rialto?osq=Auto+Services&override_cta=Get+pricing
xic3brRHFXC9bAKnNkcZ4Q,Mission Auto Center,4.9,255,20761 Lake Forest Dr,33.66129084511402,-117.66892743327485,['Auto Repair'],California,Irvine,False,https://s3-media0.fl.yelpcdn.com/bphoto/BiTr5Yileet1-WQw1VLrKg/ls.jpg,https://www.yelp.com/biz/mission-auto-center-lake-forest-2?osq=Auto+Services&override_cta=Get+pricing
qCSzC6hDyoUtLZAtUZbbzg,The Auto Service,4.6,241,800 S Grand Ave,33.7380223,-117.8506256,"['Auto Repair', 'Tires', 'Smog Check Stations']",California,Irvine,False,https://s3-media0.fl.yelpcdn.com/bphoto/Z2H-o_LSF_tJVcSjgQEOUA/ls.jpg,https://www.yelp.com/biz/the-auto-service-santa-ana?osq=Auto+Services&override_cta=Get+pricing
RiDch6KnNRKwDhkbvXubjA,Irvine Auto Care,4.8,228,3097 Edinger Ave,33.7057725,-117.8053552,"['Auto Repair', 'Tires', 'Transmission Repair']",California,Irvine,False,https://s3-media0.fl.yelpcdn.com/bphoto/5rTmEzTOVqK1aGSTZ2DhEg/ls.jpg,https://www.yelp.com/biz/irvine-auto-care-tustin?osq=Auto+Services&override_cta=Get+pricing
XUrzWN1YC9FHso5VqKxy2w,Euro Car Doctor,4.8,198,3070 Main St,33.67769310520283,-117.83478909325336,"['Auto Repair', 'Oil Change Stations']",California,Irvine,False,https://s3-media0.fl.yelpcdn.com/bphoto/qMRRSoDQ82WbfoWZ4MyRmQ/ls.jpg,https://www.yelp.com/biz/euro-car-doctor-irvine-2?osq=Auto+Services&override_cta=Get+pricing
YpIduNFoMMx6685ZF4x-4g,Grand Auto Works,4.9,179,8797 Irvine Center Dr,33.6420336,-117.7418729,['Auto Repair'],California,Irvine,False,https://s3-media0.fl.yelpcdn.com/bphoto/Ic2tUJqbV0Sigt9rfSpEcg/ls.jpg,https://www.yelp.com/biz/grand-auto-works-irvine-2?osq=Auto+Services&override_cta=Get+pricing
6KUsoNV904G86kCnFHWyBg,Performance Auto Service & Repair,4.9,250,2044 Placentia Ave,33.6487114,-117.9315219,['Auto Repair'],California,Irvine,False,https://s3-media0.fl.yelpcdn.com/bphoto/TxOkkHrQquPr_0GKxrZo-g/ls.jpg,https://www.yelp.com/biz/performance-auto-service-and-repair-costa-mesa?osq=Auto+Services&override_cta=Get+pricing
uZ3I8R58SoD4QPIdND2ZsA,Intune Motors,5.0,87,16372 Construction Cir E,33.6933386,-117.8220737,"['Auto Repair', 'Oil Change Stations', 'Tires']",California,Irvine,False,https://s3-media0.fl.yelpcdn.com/bphoto/3ilKq7NS146sAZoP-d9Fxw/ls.jpg,https://www.yelp.com/biz/intune-motors-irvine?osq=Auto+Services&override_cta=Get+pricing
2AOsg4tWVE_M9W4Ko2Nu7Q,Tanaka Auto,4.4,93,16372 Construction Cir E,33.6933386,-117.8220737,['Auto Repair'],California,Irvine,False,https://s3-media0.fl.yelpcdn.com/bphoto/gp62rZqbTUixeswAurMXyQ/ls.jpg,https://www.yelp.com/biz/tanaka-auto-irvine?osq=Auto+Services&override_cta=Get+pricing
XjGo0fWd0OciLI6erWJeEA,Purrfect Auto Service,3.3,194,3075 Edinger Ave,33.7063962,-117.8052767,"['Auto Repair', 'Oil Change Stations', 'Smog Check Stations']",California,Irvine,False,https://s3-media0.fl.yelpcdn.com/bphoto/YAoLsET1z7Lr8MydbqFxtw/ls.jpg,https://www.yelp.com/biz/purrfect-auto-service-tustin?osq=Auto+Services&override_cta=Get+pricing
x0yKXuYY_p70MMZZ3CBwGA,Auto Craft Mercedes-BMW,4.9,248,8797 Irvine Center Dr,33.6419976856314,-117.743307252478,['Auto Repair'],California,Irvine,False,https://s3-media0.fl.yelpcdn.com/bphoto/nObvb0oOZ-KJtuQX2GvZWQ/ls.jpg,https://www.yelp.com/biz/auto-craft-mercedes-bmw-irvine-2?osq=Auto+Services&override_cta=Get+pricing
DdjmFrVm0r2953mbZUcrmA,SSR Performance,4.8,337,1712 Langley Ave,33.696132836427346,-117.84791634479753,"['Auto Customization', 'Auto Repair', 'Body Shops']",California,Irvine,False,https://s3-media0.fl.yelpcdn.com/bphoto/fR3glU2T5Y-cw-ZIMHTR_w/ls.jpg,https://www.yelp.com/biz/ssr-performance-irvine-2?osq=Auto+Services&override_cta=Get+pricing
WYfBJobsNrzkfc0jWTKbSA,Star Auto Services,4.4,187,18015 Culver Dr,33.6659733,-117.8276855,['Auto Repair'],California,Irvine,False,https://s3-media0.fl.yelpcdn.com/bphoto/B4n8UKpbMcV7lOx7YAoqrw/ls.jpg,https://www.yelp.com/biz/star-auto-services-irvine?osq=Auto+Services&override_cta=Get+pricing
nZGpDL5-3gWN9ZtCoRNZng,Greensky Auto Collision,4.6,121,16101 Construction Cir W,33.697492,-117.820895,"['Auto Repair', 'Body Shops', 'Smog Check Stations']",California,Irvine,False,https://s3-media0.fl.yelpcdn.com/bphoto/nzDUNwd2e1Y4sQpgUScThw/ls.jpg,https://www.yelp.com/biz/greensky-auto-collision-irvine?osq=Auto+Services&override_cta=Get+pricing
QNqlbJX6x48MO0psEIFjVw,Harbor Auto Service Center,4.9,421,1995 Harbor Blvd,33.6469426,-117.9196654,"['Auto Repair', 'Body Shops', 'Transmission Repair']",California,Irvine,False,https://s3-media0.fl.yelpcdn.com/bphoto/DS2XOqX1kkWA5ufKWZ9NzQ/ls.jpg,https://www.yelp.com/biz/harbor-auto-service-center-costa-mesa?osq=Auto+Services&override_cta=Get+pricing
MfDBCzXk17OBMF-_L2tLFA,Oc Auto Service,4.1,139,16291 Construction Cir E,33.6945078,-117.8217254,"['Auto Repair', 'Oil Change Stations', 'Tires']",California,Irvine,False,https://s3-media0.fl.yelpcdn.com/bphoto/FBkuDroxrbsp9abbT18BGw/ls.jpg,https://www.yelp.com/biz/oc-auto-service-irvine-2?osq=Auto+Services&override_cta=Get+pricing
vD2fnllRdsp26R6tT1VtYQ,FSELA,4.8,26,16751 Noyes Ave,33.6924153,-117.8310054,"['Auto Repair', 'Body Shops', 'Auto Detailing']",California,Irvine,False,https://s3-media0.fl.yelpcdn.com/bphoto/O220WIYNfbCKciXqU0Xsbw/ls.jpg,https://www.yelp.com/biz/fsela-irvine?osq=Auto+Services&override_cta=Get+pricing
FMG0E8OZ5ByFq5kKvV0CyA,Coast MBZ BMW Service,5.0,113,3042 Enterprise St,33.682167659694834,-117.88204981778794,['Auto Repair'],California,Irvine,False,https://s3-media0.fl.yelpcdn.com/bphoto/3h8QjpTzyePThOg0dkNmaA/ls.jpg,https://www.yelp.com/biz/coast-mbz-bmw-service-costa-mesa?osq=Auto+Services&override_cta=Get+pricing
MQJ5p1YUYcAhOMn7V6pZ5A,AutoWave Honda & Acura Specialists,4.7,177,17122 Gothard St,33.7136665,-117.999784,"['Transmission Repair', 'Auto Repair']",California,Irvine,True,https://s3-media0.fl.yelpcdn.com/bphoto/-NjmnwU18Q2fEkO8OFyu2w/ls.jpg,https://www.yelp.com/biz/autowave-honda-and-acura-specialists-huntington-beach-2?override_cta=Get+pricing
28-_O_Hpi9Ta67Oo8TZENA,Nick's OC Motors,5.0,289,25721 Obrero Dr,33.6189038,-117.6820955,"['Auto Repair', 'Transmission Repair']",California,Irvine,False,https://s3-media0.fl.yelpcdn.com/bphoto/W9wOsim2t-TQUEXtO-NhHw/ls.jpg,https://www.yelp.com/biz/nicks-oc-motors-mission-viejo?osq=Auto+Services&override_cta=Get+pricing
xXIo5hQvHYi_Xnm5n_j-Bg,Midas,4.4,644,3085 Edinger Ave,33.7062568505925,-117.805054431871,"['Auto Repair', 'Oil Change Stations', 'Tires']",California,Irvine,False,https://s3-media0.fl.yelpcdn.com/bphoto/NMKoj4O3QTPh2fElbx6m-w/ls.jpg,https://www.yelp.com/biz/midas-tustin?osq=Auto+Services&override_cta=Get+pricing
liqOwW74VVK7ro7w6pJatQ,OC Auto Care,4.9,401,22751 Aspan St,33.631219,-117.715481,"['Auto Repair', 'Smog Check Stations', 'Oil Change Stations']",California,Irvine,False,https://s3-media0.fl.yelpcdn.com/bphoto/KhETT0Z8KlIZ9FFOwZiXjw/ls.jpg,https://www.yelp.com/biz/oc-auto-care-lake-forest?osq=Auto+Services&override_cta=Get+pricing
hkcAbmkzeYbi0elM0kGT4Q,Vtec Auto Repair,4.5,290,51 Auto Ctr Dr,33.63405,-117.721009,['Auto Repair'],California,Irvine,False,https://s3-media0.fl.yelpcdn.com/bphoto/Yn7mKRO-X94PrEMzcpNJXQ/ls.jpg,https://www.yelp.com/biz/vtec-auto-repair-irvine?osq=Auto+Services&override_cta=Get+pricing
PshjUV1k54TzgZcv0YOtLg,949 Auto Repair,4.6,281,22701 Granite Way,33.6280465,-117.7335241,"['Auto Repair', 'Oil Change Stations', 'Transmission Repair']",California,Irvine,False,https://s3-media0.fl.yelpcdn.com/bphoto/rjV96S2C5dYSwOu_1iSkJg/ls.jpg,https://www.yelp.com/biz/949-auto-repair-laguna-hills-3?osq=Auto+Services&override_cta=Get+pricing
KGK9MX0nwNtfKlKh5TeVpQ,Harbor Brakes & Auto Repair,4.8,527,13692 Harbor Blvd,33.7643701,-117.9194507,"['Tires', 'Auto Repair', 'Transmission Repair']",California,Irvine,False,https://s3-media0.fl.yelpcdn.com/bphoto/E3qkt6eDl0kaH-22iPd48w/ls.jpg,https://www.yelp.com/biz/harbor-brakes-and-auto-repair-garden-grove-3?osq=Auto+Services&override_cta=Get+pricing
eSD3dzxA2wtpair58knPIA,Town Garage,4.9,145,3097 Edinger Ave,33.7057744,-117.8053552,"['Oil Change Stations', 'Auto Repair']",California,Irvine,False,https://s3-media0.fl.yelpcdn.com/bphoto/5mV0cMzgxT_EbB9PjpfV-g/ls.jpg,https://www.yelp.com/biz/town-garage-tustin-2?osq=Auto+Services&override_cta=Get+pricing
rMUyTGt_FW2AHUn-kfraDA,Thanh Auto Repair,4.7,578,10462 Stanford Ave,33.77759281374617,-117.950351,['Auto Repair'],California,Irvine,False,https://s3-media0.fl.yelpcdn.com/bphoto/wK35TuWtkEHkcNrRbK6fhg/ls.jpg,https://www.yelp.com/biz/thanh-auto-repair-garden-grove?osq=Auto+Services&override_cta=Get+pricing
8xCOhrt9tHjS_yc4RbnDog,Certified Japanese Auto Repair,4.6,161,20771 Bake Pkwy,33.6608341,-117.6982743,['Auto Repair'],California,Irvine,False,https://s3-media0.fl.yelpcdn.com/bphoto/4ipTI5_EQEdC0G_Nu1cX8g/ls.jpg,https://www.yelp.com/biz/certified-japanese-auto-repair-lake-forest?osq=Auto+Services&override_cta=Get+pricing
ae8y9O5ZpVv117Kn91SHRA,H & A Auto,4.9,184,1366 Logan Ave,33.6791885,-117.9142796,"['Auto Repair', 'Oil Change Stations', 'Transmission Repair']",California,Irvine,False,https://s3-media0.fl.yelpcdn.com/bphoto/hr1VdCBLsWwJBtK8gXVJ1Q/ls.jpg,https://www.yelp.com/biz/h-and-a-auto-costa-mesa?osq=Auto+Services&override_cta=Get+pricing
KpSmftFGXR3pldHby8WOaw,Irvine Auto Repair,4.1,104,8797 Irvine Center Dr Suite F,33.6418448175396,-117.741936139881,"['Auto Repair', 'Smog Check Stations', 'Oil Change Stations']",California,Irvine,False,https://s3-media0.fl.yelpcdn.com/bphoto/f8hgZ1sMjbMQTwBfrJVkzw/ls.jpg,https://www.yelp.com/biz/irvine-auto-repair-irvine?osq=Auto+Services&override_cta=Get+pricing
xnZn5vyQEJ6mbidRdnXqEQ,Tony's OC Auto Service,4.8,25,10585 Lawson River Ave,33.6967118,-117.9442311,['Auto Repair'],California,Irvine,False,https://s3-media0.fl.yelpcdn.com/bphoto/jA9IIU9eb9nvzfVXOdE9rQ/ls.jpg,https://www.yelp.com/biz/tonys-oc-auto-service-fountain-valley-3?osq=Auto+Services&override_cta=Get+pricing
Sw32Wyd3xt57cgdTzu7kzw,Cabot Auto Services,4.9,76,27140 Cabot Rd,33.56872,-117.674667,"['Auto Repair', 'Tires', 'Transmission Repair']",California,Irvine,False,https://s3-media0.fl.yelpcdn.com/bphoto/mbGBGZ_0o7FldllPirnCyw/ls.jpg,https://www.yelp.com/biz/cabot-auto-services-laguna-hills?osq=Auto+Services&override_cta=Get+pricing
0aJQlBBw5wEhZb33o0GKfA,Costa Mesa Auto Service Center,4.7,79,1747 Anaheim Ave,33.637779,-117.9236048,['Auto Repair'],California,Irvine,False,https://s3-media0.fl.yelpcdn.com/bphoto/Gy6oWxROWqGqBedZTjJWVg/ls.jpg,https://www.yelp.com/biz/costa-mesa-auto-service-center-costa-mesa?osq=Auto+Services&override_cta=Get+pricing
wiQ8t7Fij2mhGTR2874t8w,Chapman Auto Repair of Orange,4.6,981,807 W Chapman Ave,33.78812841889797,-117.8609055,"['Auto Repair', 'Smog Check Stations', 'Oil Change Stations']",California,Irvine,False,https://s3-media0.fl.yelpcdn.com/bphoto/fWPIaJH4DyckeeoDDjSoIg/ls.jpg,https://www.yelp.com/biz/chapman-auto-repair-of-orange-orange-4?osq=Auto+Services&override_cta=Get+pricing
WsOdx3HSgrgr0zBwX7b5kg,J&C Tires & Service,4.9,92,914 S Harbor Blvd,33.7354195,-117.920596,"['Tires', 'Oil Change Stations', 'Auto Repair']",California,Irvine,False,https://s3-media0.fl.yelpcdn.com/bphoto/YcCkEvfqQoMhE6Gt6l8Lmg/ls.jpg,https://www.yelp.com/biz/j-and-c-tires-and-service-santa-ana-2?osq=Auto+Services&override_cta=Get+pricing
dBMbvcvgpD8Suf4dgjF-fA,Irvine Motor Werk: Bmw & Mini Specialists,4.9,85,8767 Irvine Center Dr,33.641656,-117.7423657,['Auto Repair'],California,Irvine,False,https://s3-media0.fl.yelpcdn.com/bphoto/1SwR32oY2LhRwjt7Z2I7kQ/ls.jpg,https://www.yelp.com/biz/irvine-motor-werk-bmw-and-mini-specialists-irvine?osq=Auto+Services&override_cta=Get+pricing
4ohP_Kc2lvzm0M2AZ9QyFw,Becker Tire & Service Center,4.8,323,1100 N Tustin,33.805710820602364,-117.8361544,"['Tires', 'Auto Repair', 'Wheel & Rim Repair']",California,Irvine,False,https://s3-media0.fl.yelpcdn.com/bphoto/PdvxCCayI_-kfMiMXfm9qA/ls.jpg,https://www.yelp.com/biz/becker-tire-and-service-center-orange?osq=Auto+Services&override_cta=Get+pricing
xwUFOz90objXaFTa8Rw5aQ,A1 Auto Mechanics & Smog,4.6,203,2945 Randolph Ave,33.67817,-117.887998,"['Auto Repair', 'Oil Change Stations']",California,Irvine,False,https://s3-media0.fl.yelpcdn.com/bphoto/EqaqR-8gCVaHl1nQThQT3A/ls.jpg,https://www.yelp.com/biz/a1-auto-mechanics-and-smog-costa-mesa?osq=Auto+Services&override_cta=Get+pricing
H3nLBbI0sxADUjjsr_ysbw,Strom German Auto Service,5.0,65,3017 Enterprise St,33.6809663,-117.8826037,['Auto Repair'],California,Irvine,False,https://s3-media0.fl.yelpcdn.com/bphoto/ddAvpxvYbsxBPu7GxymHFA/ls.jpg,https://www.yelp.com/biz/strom-german-auto-service-costa-mesa-2?osq=Auto+Services&override_cta=Get+pricing
3FLF7Gqa29RGDLp2n8jLcg,Wheel & Tire Connection,4.5,296,51 Auto Center Dr,33.6335751,-117.7207726,"['Tires', 'Auto Repair', 'Auto Customization']",California,Irvine,False,https://s3-media0.fl.yelpcdn.com/bphoto/rip55NLPSpES7RMe-VJCyg/ls.jpg,https://www.yelp.com/biz/wheel-and-tire-connection-irvine?osq=Auto+Services&override_cta=Get+pricing
AfwmqBIQSeWlYmjQZDIDJA,Mission Auto Service,4.4,362,27802 D120,33.559490898425,-117.723831219049,"['Auto Repair', 'Oil Change Stations', 'Transmission Repair']",California,Irvine,False,https://s3-media0.fl.yelpcdn.com/bphoto/jeyAgG9oycM7Fo8wa-PZWw/ls.jpg,https://www.yelp.com/biz/mission-auto-service-aliso-viejo?osq=Auto+Services&override_cta=Get+pricing
DumJsOynkcCWsb1IZwIXJA,Corner 3 Garage,4.9,324,22701 Granite Way,33.6280465,-117.7335241,"['Auto Repair', 'Auto Parts & Supplies']",California,Irvine,False,https://s3-media0.fl.yelpcdn.com/bphoto/TNRE17IwOuCzCCcO4Me98w/ls.jpg,https://www.yelp.com/biz/corner-3-garage-laguna-hills?osq=Auto+Services&override_cta=Get+pricing
sSGTs0aP8hq0xtpyrBeHSQ,German Car Garage,4.9,165,25721 Obrero Dr,33.6187969353139,-117.68206434696953,['Auto Repair'],California,Irvine,False,https://s3-media0.fl.yelpcdn.com/bphoto/kE2-vh7JiW-KJV9Jb1gz4Q/ls.jpg,https://www.yelp.com/biz/german-car-garage-mission-viejo-4?osq=Auto+Services&override_cta=Get+pricing
eQDfFSSsYbHs8_OWNfGoMQ,Glenwood Aliso Creek Auto Repair,4.7,189,22932 Glenwood Dr,33.5930144,-117.729419,"['Auto Repair', 'Oil Change Stations', 'Smog Check Stations']",California,Irvine,False,https://s3-media0.fl.yelpcdn.com/bphoto/cZNfYhHw7BoemxOlEvZKoA/ls.jpg,https://www.yelp.com/biz/glenwood-aliso-creek-auto-repair-aliso-viejo?osq=Auto+Services&override_cta=Get+pricing
WblSN9wE9nBnR83ApE5g4w,V-Tech Automotive,4.3,123,20732 Lake Forest Dr,33.6611966,-117.6671812,['Auto Repair'],California,Irvine,False,https://s3-media0.fl.yelpcdn.com/bphoto/Ip7XUCDsA7xrhixyA0u3ow/ls.jpg,https://www.yelp.com/biz/v-tech-automotive-lake-forest-2?osq=Auto+Services&override_cta=Get+pricing
eJeUBU3hbc1TFLSdhbMjbQ,Chula Vista Auto Tech,4.7,93,3031 Main St,32.5943906,-117.0681264,['Auto Repair'],California,Chula-Vista,False,https://s3-media0.fl.yelpcdn.com/bphoto/CUjYqL4tEr3V3kzcNU-UTA/ls.jpg,https://www.yelp.com/biz/chula-vista-auto-tech-chula-vista-10?osq=Auto+Services&override_cta=Get+pricing
waOS3bSHVN6YD8-lD1pI0Q,Bonita Valley Auto Care,4.0,227,3995 Bonita Rd,32.6581146,-117.0415876,"['Auto Repair', 'Commercial Truck Repair', 'Transmission Repair']",California,Chula-Vista,False,https://s3-media0.fl.yelpcdn.com/bphoto/V4TE2jnUvd1Mn5HbvsaT1w/ls.jpg,https://www.yelp.com/biz/bonita-valley-auto-care-bonita-2?osq=Auto+Services&override_cta=Get+pricing
Gr8WkzgLmrqsBJlNn-SuEw,M&T Auto Repair,4.8,25,1731 Wilson Ave,32.6662242,-117.10852,['Auto Repair'],California,Chula-Vista,False,https://s3-media0.fl.yelpcdn.com/bphoto/EuszSWuJh_2WkztBSoqOVg/ls.jpg,https://www.yelp.com/biz/m-and-t-auto-repair-national-city?osq=Auto+Services&override_cta=Get+pricing
7fgBUPSvwnXY7tiUzagpoQ,Western Auto Service,4.8,141,3669 University Ave,32.7495368,-117.113887,['Auto Repair'],California,Chula-Vista,False,https://s3-media0.fl.yelpcdn.com/bphoto/1hqY5yQl1WB9iu85nBTUiw/ls.jpg,https://www.yelp.com/biz/western-auto-service-san-diego-10?osq=Auto+Services&override_cta=Get+pricing
22sFgFlRrzQH4kxDk2_8Ug,Automotive Service,3.7,10,495 Telegraph Canyon Rd,32.6292797,-117.0426067,['Auto Repair'],California,Chula-Vista,False,https://s3-media0.fl.yelpcdn.com/bphoto/CZI6Ht6kBWWeFXQibdeLkQ/ls.jpg,https://www.yelp.com/biz/automotive-service-chula-vista-2?osq=Auto+Services&override_cta=Get+pricing
fHd2ItuuJ8veGZkWTydzBQ,Bonita Vista Gas And Auto,4.0,54,903 Otay Lakes Rd,32.6422631,-116.99369,"['Gas Stations', 'Auto Repair', 'Smog Check Stations']",California,Chula-Vista,False,https://s3-media0.fl.yelpcdn.com/bphoto/Xcbt3t8mHL-U5KT2K0n3Jw/ls.jpg,https://www.yelp.com/biz/bonita-vista-gas-and-auto-chula-vista?osq=Auto+Services&override_cta=Get+pricing
ovh5nAw2RQ2oIQrMueDTPA,Dave's Auto Service,4.7,36,111 Press Ln,32.6557094,-117.0836291,['Auto Repair'],California,Chula-Vista,False,https://s3-media0.fl.yelpcdn.com/bphoto/mFbta2ALSAi4XW1g6TLZww/ls.jpg,https://www.yelp.com/biz/daves-auto-service-chula-vista?osq=Auto+Services&override_cta=Get+pricing
4tkaYvKviUqs9cUK_3-lOg,Bonita Point Auto Care 76,3.3,204,1495 E H St,32.644884007721146,-117.0001680859708,"['Auto Repair', 'Tires', 'Transmission Repair']",California,Chula-Vista,False,https://s3-media0.fl.yelpcdn.com/bphoto/Oejfe7sXeKc6b5lBWgfKzw/ls.jpg,https://www.yelp.com/biz/bonita-point-auto-care-chula-vista-4?osq=Auto+Services&override_cta=Get+pricing
zPFeOi3rOFU1mLJYT9iD-Q,Import Auto Service,4.8,190,7945 Mission Gorge Rd,32.8360197,-117.0234047,"['Auto Repair', 'Oil Change Stations', 'Transmission Repair']",California,Chula-Vista,False,https://s3-media0.fl.yelpcdn.com/bphoto/FRAN-ePV6NYD1cnwrXpRkw/ls.jpg,https://www.yelp.com/biz/import-auto-service-santee-5?osq=Auto+Services&override_cta=Get+pricing
eaCGfJgDLO5SbeqKuS9SIQ,Total Care Transmissions & Classic Restoration,4.9,43,1112 Coolidge Ave,32.6718596,-117.1091762,"['Auto Repair', 'Transmission Repair']",California,Chula-Vista,False,https://s3-media0.fl.yelpcdn.com/bphoto/4JNpCiOjoNXLgCAxH4W8_A/ls.jpg,https://www.yelp.com/biz/total-care-transmissions-and-classic-restoration-national-city?osq=Auto+Services&override_cta=Get+pricing
sb-oLv_eyYcBphs5iwchtQ,Juan's Auto Repair,4.5,88,2520 Main St,32.5952103,-117.0789582,['Auto Repair'],California,Chula-Vista,False,https://s3-media0.fl.yelpcdn.com/bphoto/ztDWoqOL9b1zo8GqhPdNxQ/ls.jpg,https://www.yelp.com/biz/juans-auto-repair-chula-vista?osq=Auto+Services&override_cta=Get+pricing
g96UbdZkAlDut2aFLzL0zQ,The Pit Stop Auto Repair,4.4,209,525 Lindsay St,32.8014184,-116.9570482,"['Auto Repair', 'Oil Change Stations']",California,Chula-Vista,False,https://s3-media0.fl.yelpcdn.com/bphoto/ReNf5l-DPLT5y3-cpxZLlQ/ls.jpg,https://www.yelp.com/biz/the-pit-stop-auto-repair-el-cajon?osq=Auto+Services&override_cta=Get+pricing
BD98SGx7POnELAxjUZFtmw,B & J Auto Repair Smog & Sales,4.6,431,696 Bdwy,32.6242127,-117.0872811,"['Auto Repair', 'Smog Check Stations']",California,Chula-Vista,False,https://s3-media0.fl.yelpcdn.com/bphoto/Vg21sDEWkXWVQmqQpKIzWw/ls.jpg,https://www.yelp.com/biz/b-and-j-auto-repair-smog-and-sales-chula-vista-2?osq=Auto+Services&override_cta=Get+pricing
BjCpEwyQLUFE5mPkbnF7rg,Tk Auto Repair,4.7,89,1137 Broadway,32.6087285,-117.0802259,['Auto Repair'],California,Chula-Vista,False,https://s3-media0.fl.yelpcdn.com/bphoto/qFIGuvRs4tIN9y3AG4fM4w/ls.jpg,https://www.yelp.com/biz/tk-auto-repair-chula-vista?osq=Auto+Services&override_cta=Get+pricing
en0gu8Y9JMc4VsAaoCrOUA,Allman Family Auto,4.8,336,7066 El Cajon Blvd,32.7690953,-117.0455297,"['Auto Repair', 'Oil Change Stations', 'Tires']",California,Chula-Vista,False,https://s3-media0.fl.yelpcdn.com/bphoto/nl_nE0oK8-TP8v6F-vXy0A/ls.jpg,https://www.yelp.com/biz/allman-family-auto-san-diego-2?osq=Auto+Services&override_cta=Get+pricing
pOr-SCfpclbQUINeI3q1XQ,John's Automotive Care,4.7,445,6267 Riverdale St,32.7883555,-117.0994223,"['Auto Repair', 'Oil Change Stations', 'Towing']",California,Chula-Vista,False,https://s3-media0.fl.yelpcdn.com/bphoto/JCC28rUfcXzeJUxDtENWPg/ls.jpg,https://www.yelp.com/biz/johns-automotive-care-san-diego?osq=Auto+Services&override_cta=Get+pricing
gMth_NJsyHGKvQa5VNC0zA,Ted's Garage,4.4,70,1270 3rd Ave,32.6078161,-117.0671223,"['Auto Repair', 'Oil Change Stations']",California,Chula-Vista,False,https://s3-media0.fl.yelpcdn.com/bphoto/Nrd_234dDng1y_1DireM_g/ls.jpg,https://www.yelp.com/biz/teds-garage-chula-vista?osq=Auto+Services&override_cta=Get+pricing
cXssl2P3CzeRomPMkTwwoQ,Pep Boys,2.5,309,1000 Tierra Del Rey,32.636443,-117.019849,"['Auto Repair', 'Tires', 'Oil Change Stations']",California,Chula-Vista,False,https://s3-media0.fl.yelpcdn.com/bphoto/2YnSP4ahaneRhUvGLjGNmQ/ls.jpg,https://www.yelp.com/biz/pep-boys-chula-vista-7?osq=Auto+Services&override_cta=Get+pricing
h81FfGJ9Lqvi4T_NUGHw7w,Castaneda's Auto Repair,4.3,12,44 Broadway,32.6466358,-117.0959909,['Auto Repair'],California,Chula-Vista,False,https://s3-media0.fl.yelpcdn.com/assets/srv0/yelp_styleguide/4f30aa60678e/assets/img/default_avatars/business_large_square.png,https://www.yelp.com/biz/castanedas-auto-repair-chula-vista?osq=Auto+Services&override_cta=Get+pricing
qLOJc6C6ZjdmeZH7zw35aQ,Sams Quality Auto Care,4.8,52,267 N Marshall Ave,32.7966976,-116.9745656,"['Auto Repair', 'Transmission Repair']",California,Chula-Vista,False,https://s3-media0.fl.yelpcdn.com/bphoto/K7sdDd9byTtXAjfMPLOIuw/ls.jpg,https://www.yelp.com/biz/sams-quality-auto-care-el-cajon-2?osq=Auto+Services&override_cta=Get+pricing
2eJGyRf6NYDOpE1J9DvYcw,Tonys Auto Center,3.1,166,38 3rd Ave,32.65019360728176,-117.0857620257048,"['Towing', 'Auto Repair']",California,Chula-Vista,False,https://s3-media0.fl.yelpcdn.com/bphoto/k7VFaChWki3fEDcviRMRfQ/ls.jpg,https://www.yelp.com/biz/tonys-auto-center-chula-vista?osq=Auto+Services&override_cta=Get+pricing
lLpy-02OhfrcpA-e3aOASg,John's Automotive Care La Mesa,4.6,97,7447 University Ave,32.7577254,-117.0367779,"['Auto Repair', 'Oil Change Stations', 'Towing']",California,Chula-Vista,False,https://s3-media0.fl.yelpcdn.com/bphoto/ba7IC_rjaUaOD_kYDevnsg/ls.jpg,https://www.yelp.com/biz/johns-automotive-care-la-mesa-la-mesa?osq=Auto+Services&override_cta=Get+pricing
mkqgEWh1JtRYnEXg7dSaag,Wheel Depot,3.9,79,1743 Broadway,32.5940570956656,-117.07447415018,"['Tires', 'Auto Repair', 'Oil Change Stations']",California,Chula-Vista,False,https://s3-media0.fl.yelpcdn.com/bphoto/-JuQwTiXYYBJpKSLGvszUw/ls.jpg,https://www.yelp.com/biz/wheel-depot-chula-vista-2?osq=Auto+Services&override_cta=Get+pricing
cUThmVXbD4X1wCW2ziX7HQ,Premier Auto Center,4.9,64,9450 Jamacha Blvd,32.7081209985759,-116.9961208300882,"['Auto Repair', 'Body Shops', 'Smog Check Stations']",California,Chula-Vista,False,https://s3-media0.fl.yelpcdn.com/bphoto/a2PlNML3Gv9k4Lvrkr5v7Q/ls.jpg,https://www.yelp.com/biz/premier-auto-center-spring-valley?osq=Auto+Services&override_cta=Get+pricing
LiGzOI3XigmDSY2esvmlUw,Otay Mesa Brake & Lamp,5.0,1,8359 Otay Mesa Rd,32.5672276,-116.9637967,['Auto Repair'],California,Chula-Vista,False,https://s3-media0.fl.yelpcdn.com/bphoto/YVqbtXZSfkGwY0QEYig5NA/ls.jpg,https://www.yelp.com/biz/otay-mesa-brake-and-lamp-san-diego-2?osq=Auto+Services&override_cta=Get+pricing
GThHkfZivxQdt_GOPOhquA,Superior Automotive Repair,4.2,42,2578 Main St,32.595275,-117.0780751,"['Auto Repair', 'Transmission Repair', 'Oil Change Stations']",California,Chula-Vista,False,https://s3-media0.fl.yelpcdn.com/bphoto/qp8BxqeCx23BWPleZ_6Vgw/ls.jpg,https://www.yelp.com/biz/superior-automotive-repair-chula-vista?osq=Auto+Services&override_cta=Get+pricing
_DIZ7a5A74B8584YqQ0xrw,Frank Honda & Toyota Auto Repair,4.5,80,3470 El Cajon Blvd,32.7555387,-117.1183749,['Auto Repair'],California,Chula-Vista,False,https://s3-media0.fl.yelpcdn.com/bphoto/pgAOtVn4KUgupw_B-kGUTg/ls.jpg,https://www.yelp.com/biz/frank-honda-and-toyota-auto-repair-san-diego?osq=Auto+Services&override_cta=Get+pricing
_Nx6H6Hw_OXjlw_9Aqqf_Q,Summit Transmissions and Auto Care,4.6,122,7633 El Cajon Blvd,32.7679287,-117.03348,"['Auto Repair', 'Oil Change Stations', 'Transmission Repair']",California,Chula-Vista,False,https://s3-media0.fl.yelpcdn.com/bphoto/ZJzDQKsleFWq5O3_Dr1OCg/ls.jpg,https://www.yelp.com/biz/summit-transmissions-and-auto-care-la-mesa?osq=Auto+Services&override_cta=Get+pricing
Hy_864tsY1ioV_FY2UnzJw,Mason's Auto Clinic,4.7,59,975 Palm Ave,32.5835954,-117.1126018,"['Auto Repair', 'Auto Parts & Supplies']",California,Chula-Vista,False,https://s3-media0.fl.yelpcdn.com/bphoto/ryvZrQCLpjaxdoey-tR-Ng/ls.jpg,https://www.yelp.com/biz/masons-auto-clinic-imperial-beach?osq=Auto+Services&override_cta=Get+pricing
PQGHfXzj3qeFm80ua3E4LA,TrueLine Auto Service,4.0,139,377 E St,32.6441075,-117.0846946,"['Auto Repair', 'Wheel & Rim Repair']",California,Chula-Vista,False,https://s3-media0.fl.yelpcdn.com/bphoto/pt-ezec8DX7OYwus4U4n4A/ls.jpg,https://www.yelp.com/biz/trueline-auto-service-chula-vista?osq=Auto+Services&override_cta=Get+pricing
nO2Fgvu5-4xXoKbkBHzq_Q,Frank Auto Service,4.6,11,2940 National City Blvd,32.6572663,-117.1001393,['Auto Repair'],California,Chula-Vista,False,https://s3-media0.fl.yelpcdn.com/bphoto/jCZJZE1hYK7M1nc0T6HLuA/ls.jpg,https://www.yelp.com/biz/frank-auto-service-national-city?osq=Auto+Services&override_cta=Get+pricing
9NGxSxphzYksOfw6gCTQoQ,J & K Automotive Repair,4.9,120,130 W Bradley Ave,32.819415,-116.963561,"['Auto Repair', 'Oil Change Stations']",California,Chula-Vista,False,https://s3-media0.fl.yelpcdn.com/bphoto/_ApZ2Xwvo59A_p-4RwE08w/ls.jpg,https://www.yelp.com/biz/j-and-k-automotive-repair-el-cajon?osq=Auto+Services&override_cta=Get+pricing
9p7T7_dVZVhvTWiYgzncwg,A-1 Auto Repair & Detail,4.4,7,956 Broadway,32.6152181,-117.0836603,"['Auto Repair', 'Roadside Assistance']",California,Chula-Vista,False,https://s3-media0.fl.yelpcdn.com/bphoto/eftwhsSeC8VGaRhg0DcxKw/ls.jpg,https://www.yelp.com/biz/a-1-auto-repair-and-detail-chula-vista-2?osq=Auto+Services&override_cta=Get+pricing
3gQkyAWneA44GBVSmEGuKQ,Mission Bay Automotive,4.7,304,1735 Morena Blvd,32.7771728,-117.2071908,"['Auto Repair', 'Oil Change Stations', 'Tires']",California,Chula-Vista,False,https://s3-media0.fl.yelpcdn.com/bphoto/QB_EpBLvtKHEZ3OP8O525g/ls.jpg,https://www.yelp.com/biz/mission-bay-automotive-san-diego?osq=Auto+Services&override_cta=Get+pricing
zStBvjBONWPezVaQDqQE4A,Broadway Tire & Automotive Center,4.4,55,1105 Broadway,32.8071755,-116.9441693,"['Auto Repair', 'Tires']",California,Chula-Vista,False,https://s3-media0.fl.yelpcdn.com/bphoto/lSddf19bYMVtToxj3Nko2A/ls.jpg,https://www.yelp.com/biz/broadway-tire-and-automotive-center-el-cajon?osq=Auto+Services&override_cta=Get+pricing
BusUmsWZ7zzrwrsaMlkmfg,Professional Complete Auto Care,4.5,27,4801 University Ave,32.7493102,-117.0910198,"['Auto Repair', 'Tires']",California,Chula-Vista,False,https://s3-media0.fl.yelpcdn.com/bphoto/XZZuH3elmiWFVho5dPCXOw/ls.jpg,https://www.yelp.com/biz/professional-complete-auto-care-san-diego-2?osq=Auto+Services&override_cta=Get+pricing
rN6E14yCwGRZJ0q2fBocLw,Monell Brakes & Auto Care,4.9,55,801 Broadway,32.6203304,-117.0849704,['Auto Repair'],California,Chula-Vista,False,https://s3-media0.fl.yelpcdn.com/bphoto/klbhLXvaVFlkDPYTpp1kBQ/ls.jpg,https://www.yelp.com/biz/monell-brakes-and-auto-care-chula-vista?osq=Auto+Services&override_cta=Get+pricing
vwfaasuOAR3bSVWr4uD96g,Don Henderson Auto Service,4.9,153,2835 Lemon Grove Ave,32.73687834606854,-117.030704,"['Auto Repair', 'Oil Change Stations', 'Towing']",California,Chula-Vista,False,https://s3-media0.fl.yelpcdn.com/bphoto/H-8OzMbkuzcMTVt5SCVZNw/ls.jpg,https://www.yelp.com/biz/don-henderson-auto-service-lemon-grove?osq=Auto+Services&override_cta=Get+pricing
1X9J8b30GnMBjpOOVRWFqw,Grease Monkey Garage,4.8,37,1027 Greenfield Dr,32.8126447,-116.9466636,['Auto Repair'],California,Chula-Vista,False,https://s3-media0.fl.yelpcdn.com/bphoto/USU8pJY3iMB82XP6nRV32w/ls.jpg,https://www.yelp.com/biz/grease-monkey-garage-el-cajon-3?osq=Auto+Services&override_cta=Get+pricing
_ETd_wvidqetEUZwoF57sg,Ed Hanson's Muffler Service,4.8,302,3916 N Barcelona St,32.7485492,-116.98215086441796,"['Auto Repair', 'Auto Customization']",California,Chula-Vista,False,https://s3-media0.fl.yelpcdn.com/bphoto/yUJZEf2RSONOvGM3CmjXlQ/ls.jpg,https://www.yelp.com/biz/ed-hansons-muffler-service-spring-valley?osq=Auto+Services&override_cta=Get+pricing
KcrrIwJrS7JUWE3HPnMxpg,Reyes Auto Wrecking,5.0,2,6465 Datsun St,32.5718454,-117.0001753,"['Auto Repair', 'Tires', 'Auto Parts & Supplies']",California,Chula-Vista,False,https://s3-media0.fl.yelpcdn.com/bphoto/sP4BNqSb7QQBtpOxe4j5QA/ls.jpg,https://www.yelp.com/biz/reyes-auto-wrecking-san-diego?osq=Auto+Services&override_cta=Get+pricing
Mrf79YuQ99X3FBGHAZuAyg,Auto Tech Automotive Repair,4.7,92,590 S Marshall Ave,32.7898192,-116.9758761,['Auto Repair'],California,Chula-Vista,False,https://s3-media0.fl.yelpcdn.com/bphoto/T5P3VgNDsXK8tbZTto6gnA/ls.jpg,https://www.yelp.com/biz/auto-tech-automotive-repair-el-cajon?osq=Auto+Services&override_cta=Get+pricing
2lw6J2pa0wxZzlOSuU5eBQ,Merrill's Smog and Repair,4.9,497,16600 Merrill Ave,34.09239,-117.44177,"['Smog Check Stations', 'Oil Change Stations', 'Auto Repair']",California,Fontana,False,https://s3-media0.fl.yelpcdn.com/bphoto/af_m0T5Jl2e8QRROKXaZNw/ls.jpg,https://www.yelp.com/biz/merrills-smog-and-repair-fontana?osq=Auto+Services&override_cta=Get+pricing
sHxjyVHq00QX_NcWNoQM6A,Sal's Garage 909,4.4,203,17338 Foothill Blvd,34.1071523,-117.426241,"['Auto Repair', 'Transmission Repair']",California,Fontana,False,https://s3-media0.fl.yelpcdn.com/bphoto/NeivYDgF5nQyL-yvBHy0hQ/ls.jpg,https://www.yelp.com/biz/sals-garage-909-fontana-3?osq=Auto+Services&override_cta=Get+pricing
I3boRQziRQD10T2TysgtPQ,Mountain View Tire & Auto Service,3.9,152,14373 Baseline Rd,34.1211582,-117.4911454,"['Tires', 'Auto Repair', 'Oil Change Stations']",California,Fontana,False,https://s3-media0.fl.yelpcdn.com/bphoto/pVGMa5c90bOVy6dPFNQabg/ls.jpg,https://www.yelp.com/biz/mountain-view-tire-and-auto-service-fontana-2?osq=Auto+Services&override_cta=Get+pricing
2qqKJBBMWEz92_46rAcC2g,Speedy Auto Repair & Electric,4.8,304,23930 Sunnymead Blvd,33.9393419,-117.2451749,"['Auto Repair', 'Oil Change Stations', 'Transmission Repair']",California,Fontana,False,https://s3-media0.fl.yelpcdn.com/bphoto/lvbs64V7q5lyqrSs77g6pQ/ls.jpg,https://www.yelp.com/biz/speedy-auto-repair-and-electric-moreno-valley-2?osq=Auto+Services&override_cta=Get+pricing
O4NNmLMAnhOfT0fXu7mFoQ,Eddie's Auto Repair,4.3,64,755 W Rialto Ave,34.0990825,-117.3846501,"['Auto Repair', 'Oil Change Stations', 'Transmission Repair']",California,Fontana,False,https://s3-media0.fl.yelpcdn.com/bphoto/41NdxTPB3meyg_I0UmXmZA/ls.jpg,https://www.yelp.com/biz/eddies-auto-repair-rialto?osq=Auto+Services&override_cta=Get+pricing
WwBI775gQQ1_PBvdjHv3pQ,Enzo's Garage,4.9,30,9377 E 9th St,34.0952957,-117.6009876,['Auto Repair'],California,Fontana,False,https://s3-media0.fl.yelpcdn.com/bphoto/kFUkEDdJdAfAIdaVY0JCtg/ls.jpg,https://www.yelp.com/biz/enzos-garage-rancho-cucamonga?osq=Auto+Services&override_cta=Get+pricing
NNkKxTMn-_GdS4HyIw9Ocg,Bros. Auto Performance & Repair,4.8,97,10131 Vine St,34.069783407668794,-117.39363410678408,"['Auto Repair', 'Oil Change Stations']",California,Fontana,False,https://s3-media0.fl.yelpcdn.com/bphoto/7STF-DS_TCxljxfO8fRY_w/ls.jpg,https://www.yelp.com/biz/bros-auto-performance-and-repair-bloomington-2?osq=Auto+Services&override_cta=Get+pricing
9P4lrXVas4K32EVFr1cZlw,Route 66 Automotive,3.9,21,8419 Cherry Ave,34.10097265767265,-117.48761302103463,"['Auto Repair', 'Tires', 'Oil Change Stations']",California,Fontana,False,https://s3-media0.fl.yelpcdn.com/bphoto/n-XE9D0NQ6kS7owYKV-yjQ/ls.jpg,https://www.yelp.com/biz/route-66-automotive-fontana-2?osq=Auto+Services&override_cta=Get+pricing
SD8P5SA8auzMfYXGTDgPaw,Martinez Tire & Auto Service,3.6,38,8445 Juniper Ave,34.1002865,-117.4398368,"['Tires', 'Auto Repair', 'Wheel & Rim Repair']",California,Fontana,False,https://s3-media0.fl.yelpcdn.com/bphoto/7GvYWqODb1TU3yjQFOTFwQ/ls.jpg,https://www.yelp.com/biz/martinez-tire-and-auto-service-fontana?osq=Auto+Services&override_cta=Get+pricing
i_NDm1eYJqQ-yYRvzORMXw,Arrow Tire & Wheel,3.9,84,6183 Sierra Ave,34.1414673226091,-117.435695919327,"['Tires', 'Wheel & Rim Repair', 'Auto Repair']",California,Fontana,False,https://s3-media0.fl.yelpcdn.com/bphoto/rTI5R0KdAhOie_aSFKaX_w/ls.jpg,https://www.yelp.com/biz/arrow-tire-and-wheel-fontana?osq=Auto+Services&override_cta=Get+pricing
5DzxQoVYNk94X9Vp9vnjuQ,A-1 Auto Care Center,4.7,106,9524 Foothill Blvd,34.10697188059104,-117.59739727288355,"['Auto Repair', 'Smog Check Stations']",California,Fontana,True,https://s3-media0.fl.yelpcdn.com/bphoto/qRrEbnUbhN-3yHlRW6DRkA/ls.jpg,https://www.yelp.com/biz/a-1-auto-care-center-rancho-cucamonga?override_cta=Get+pricing
1JKwzULNDTkzXnyURUZe9Q,Toyotek,4.9,160,8520 8th St,34.09238,-117.619246,"['Auto Repair', 'Smog Check Stations']",California,Fontana,False,https://s3-media0.fl.yelpcdn.com/bphoto/uyKB_fmHtMer0pI9bYDKaQ/ls.jpg,https://www.yelp.com/biz/toyotek-rancho-cucamonga-9?osq=Auto+Services&override_cta=Get+pricing
SRtasU-euJYpr3abE-P6WQ,Maintenance Pros,4.9,120,779 N Benson Ave,34.10287,-117.681342,"['Auto Repair', 'Tires']",California,Fontana,False,https://s3-media0.fl.yelpcdn.com/bphoto/2OSOQ75CMr-pUR0lS6w_Xg/ls.jpg,https://www.yelp.com/biz/maintenance-pros-upland?osq=Auto+Services&override_cta=Get+pricing
wso3n8FeKb6lImPPkqIosQ,Prestige Automotive,4.7,90,3013 Vine St,33.9866014,-117.3635384,['Auto Repair'],California,Fontana,False,https://s3-media0.fl.yelpcdn.com/bphoto/bfxDzww-Ncnl6zeHTglEIQ/ls.jpg,https://www.yelp.com/biz/prestige-automotive-riverside?osq=Auto+Services&override_cta=Get+pricing
R6KDQUYgBvFM09HE2zG_8A,C & S Auto & Truck Repair,4.9,151,10521 Limonite Ave,33.9758187,-117.5143819,"['Auto Repair', 'Transmission Repair']",California,Fontana,False,https://s3-media0.fl.yelpcdn.com/bphoto/OHmni6gvrD7rysefAnrIpw/ls.jpg,https://www.yelp.com/biz/c-and-s-auto-and-truck-repair-mira-loma?osq=Auto+Services&override_cta=Get+pricing
lJK31lqymyuJnEFKqa66DA,Martinez Lube & Tune,4.4,40,371 W Foothill Blvd,34.1064728,-117.3764661,"['Auto Repair', 'Transmission Repair', 'Oil Change Stations']",California,Fontana,False,https://s3-media0.fl.yelpcdn.com/bphoto/zsVq8VP3Vx05H1aHfYLF2g/ls.jpg,https://www.yelp.com/biz/martinez-lube-and-tune-rialto-3?osq=Auto+Services&override_cta=Get+pricing
qxB1DsrbQaeOHI54QHPZVQ,Midas,3.6,117,9413 Sierra Avenue,34.0830044061352,-117.435317463212,"['Auto Repair', 'Oil Change Stations', 'Tires']",California,Fontana,False,https://s3-media0.fl.yelpcdn.com/bphoto/nIVLn1qzd7aK9RWmkFzH8A/ls.jpg,https://www.yelp.com/biz/midas-fontana?osq=Auto+Services&override_cta=Get+pricing
OdDXzY8SVHYFksgj-EoMBA,Wholesale Tire & Automotive,4.9,302,1663 Industrial Ave,33.9060544,-117.5631993,['Auto Repair'],California,Fontana,False,https://s3-media0.fl.yelpcdn.com/bphoto/H7ExfGdWaOFbzksn-_1p3A/ls.jpg,https://www.yelp.com/biz/wholesale-tire-and-automotive-norco?osq=Auto+Services&override_cta=Get+pricing
LwJkSVazP1unRaxMDgfCGw,Rogers Exhaust Shop,4.9,265,16749 Foothill Blvd,34.106224890856645,-117.43921878220974,"['Auto Parts & Supplies', 'Auto Repair', 'Trailer Repair']",California,Fontana,False,https://s3-media0.fl.yelpcdn.com/bphoto/si5KtPZJNucfAOCBAaOJNA/ls.jpg,https://www.yelp.com/biz/rogers-exhaust-shop-fontana-3?osq=Auto+Services&override_cta=Get+pricing
hAeyynB4Ov4AuoMWcY9pzw,Purrfect Auto Service,3.7,28,463 W Foothill Blvd,34.1063514,-117.3788591,"['Oil Change Stations', 'Smog Check Stations', 'Auto Repair']",California,Fontana,False,https://s3-media0.fl.yelpcdn.com/bphoto/wvKBZlKV9W-Z855u9KQjnA/ls.jpg,https://www.yelp.com/biz/purrfect-auto-service-rialto-2?osq=Auto+Services&override_cta=Get+pricing
wH1RhDTAVO9_B9YrlYEM8Q,Golden Tires,5.0,5,9340 Sierra Ave,34.08421592225279,-117.4361292,"['Auto Repair', 'Tires', 'Oil Change Stations']",California,Fontana,False,https://s3-media0.fl.yelpcdn.com/bphoto/VJhvfsePEHhv4mVzCjlP6g/ls.jpg,https://www.yelp.com/biz/golden-tires-fontana?osq=Auto+Services&override_cta=Get+pricing
Oi0Chn_HDsMbJEpSsiGkUA,Sierra Transmission & Auto Repair,4.3,25,9425 Sierra Ave,34.0826289,-117.4346691,"['Auto Repair', 'Transmission Repair']",California,Fontana,False,https://s3-media0.fl.yelpcdn.com/bphoto/dPDsFSIxk0sypWtsKZt7hA/ls.jpg,https://www.yelp.com/biz/sierra-transmission-and-auto-repair-fontana?osq=Auto+Services&override_cta=Get+pricing
NmhRYB3UbUbCGa6Zutqt-A,Padilla Tire & Auto Repair,3.8,70,15808 Foothill Blvd,34.1070039,-117.4599195,"['Tires', 'Auto Repair']",California,Fontana,False,https://s3-media0.fl.yelpcdn.com/bphoto/lWs1z15OdSHQqqW0ptBg-g/ls.jpg,https://www.yelp.com/biz/padilla-tire-and-auto-repair-fontana-2?osq=Auto+Services&override_cta=Get+pricing
tx0KOS7GSjMKXfFxnTrhFg,Mountain View Tire & Auto Service,3.7,57,17040 S Highland Ave,34.1355476,-117.4329253,"['Tires', 'Auto Repair', 'Oil Change Stations']",California,Fontana,False,https://s3-media0.fl.yelpcdn.com/bphoto/RxOyvQF8vLRtiQlH0dge3g/ls.jpg,https://www.yelp.com/biz/mountain-view-tire-and-auto-service-fontana-3?osq=Auto+Services&override_cta=Get+pricing
uurusRCOUfngeL66lwQ1zA,Best Motor Werks,4.8,148,8740 Flower Rd,34.094937389542295,-117.6081251478504,"['Auto Repair', 'Auto Customization']",California,Fontana,False,https://s3-media0.fl.yelpcdn.com/bphoto/YaiMOxPdxzqd4fKRBDUWSw/ls.jpg,https://www.yelp.com/biz/best-motor-werks-rancho-cucamonga?osq=Auto+Services&override_cta=Get+pricing
c_JzADXlrRro7HaoT3HbFQ,La Sierra Tires & Wheels,4.5,17,9439 Sierra Ave,34.0822107,-117.4352613,"['Tires', 'Wheel & Rim Repair', 'Auto Repair']",California,Fontana,False,https://s3-media0.fl.yelpcdn.com/bphoto/oDZ-m9xMpq9cum0OhDKUOw/ls.jpg,https://www.yelp.com/biz/la-sierra-tires-and-wheels-fontana-3?osq=Auto+Services&override_cta=Get+pricing
jqqB0z0Jq3uzjjrE3adfLg,Prostop Automotive Wheels & Tires,4.8,179,1703 E Washington St,34.048939,-117.299875,"['Auto Repair', 'Oil Change Stations']",California,Fontana,False,https://s3-media0.fl.yelpcdn.com/bphoto/umy4GqKNQ1jiH6UFmu6vhg/ls.jpg,https://www.yelp.com/biz/prostop-automotive-wheels-and-tires-colton?osq=Auto+Services&override_cta=Get+pricing
p599rCe3zOeHwgZoQwEF9g,Tire Choice Auto Service Centers,3.7,97,6072 Camino Real,33.9776027,-117.4508462,"['Auto Repair', 'Oil Change Stations', 'Tires']",California,Fontana,False,https://s3-media0.fl.yelpcdn.com/bphoto/vYd14P0IHxGk22LWCnz-Gw/ls.jpg,https://www.yelp.com/biz/tire-choice-auto-service-centers-riverside-2?osq=Auto+Services&override_cta=Get+pricing
k3YqaR5cmHfzuZRZHR05kQ,EJ'S Auto,4.6,19,16635 Foothill Blvd,34.1061131,-117.4420307,['Auto Repair'],California,Fontana,False,https://s3-media0.fl.yelpcdn.com/bphoto/KH5fyOHDoGCMNZS3yphRPg/ls.jpg,https://www.yelp.com/biz/ejs-auto-fontana?osq=Auto+Services&override_cta=Get+pricing
TDfFpnBjE3OXMC9Q2Xm8Lg,C & C Auto Repair,4.1,18,15750 Arrow Blvd,34.09981765380279,-117.4606858644179,['Auto Repair'],California,Fontana,False,https://s3-media0.fl.yelpcdn.com/bphoto/Fx2KJbBwkXwihw98Kao-ew/ls.jpg,https://www.yelp.com/biz/c-and-c-auto-repair-fontana?osq=Auto+Services&override_cta=Get+pricing
4FJRoItJWujANG6RTmnchQ,Premier West Gears,4.7,151,12490 Magnolia Ave,33.8882145,-117.5012306,['Auto Repair'],California,Fontana,False,https://s3-media0.fl.yelpcdn.com/bphoto/alxu1Tj91Pee4nPsSVZeQw/ls.jpg,https://www.yelp.com/biz/premier-west-gears-riverside-4?osq=Auto+Services&override_cta=Get+pricing
ao1o1SLMsprr_xW00ChqdQ,Jiffy Lube,3.8,203,16035 Sierra Lakes Pkwy,34.1379171,-117.4548359,"['Oil Change Stations', 'Auto Repair']",California,Fontana,False,https://s3-media0.fl.yelpcdn.com/bphoto/p7RH05B0xvwJtbTOzL0PWg/ls.jpg,https://www.yelp.com/biz/jiffy-lube-fontana-2?osq=Auto+Services&override_cta=Get+pricing
ss4nG3BLMlfiawAebxipTA,Landa's Automotive Repair,5.0,4,870 W Rialto Ave,34.099875,-117.387438,['Auto Repair'],California,Fontana,False,https://s3-media0.fl.yelpcdn.com/bphoto/gPelWV-heT35qAzqlT9nhQ/ls.jpg,https://www.yelp.com/biz/landas-automotive-repair-rialto?osq=Auto+Services&override_cta=Get+pricing
T_MxChTlxABGlW7OEEs2UA,Ramona Tire & Service Centers,4.4,444,11836 Foothill Blvd,34.1076924,-117.5474636,"['Auto Repair', 'Tires', 'Wheel & Rim Repair']",California,Fontana,False,https://s3-media0.fl.yelpcdn.com/bphoto/R9Z4jEOPoYPEYtccgEKQBA/ls.jpg,https://www.yelp.com/biz/ramona-tire-and-service-centers-rancho-cucamonga?osq=Auto+Services&override_cta=Get+pricing
Nc158Oopm0Z_PUuZuDLt-Q,Bob's Radiator Shop,4.7,35,201 E 3rd St,34.1043933,-117.2815499,['Auto Repair'],California,Fontana,False,https://s3-media0.fl.yelpcdn.com/bphoto/GSBEErqhQV7HX5oysgRYAw/ls.jpg,https://www.yelp.com/biz/bobs-radiator-shop-san-bernardino?osq=Auto+Services&override_cta=Get+pricing
ctEDHatIrk6XxCdZhDhAuQ,D & D Auto Repair,5.0,1,17345 Arrow Blvd,34.0990535,-117.4261401,['Auto Repair'],California,Fontana,False,https://s3-media0.fl.yelpcdn.com/bphoto/VUqlg1QaJTQw20m7Da46yg/ls.jpg,https://www.yelp.com/biz/d-and-d-auto-repair-fontana?osq=Auto+Services&override_cta=Get+pricing
TmeT5cOq-PfojIJ_Kn0blQ,Les Schwab Tire Center,4.2,216,6251 Sierra Ave,34.1401162051842,-117.435529483705,"['Tires', 'Auto Repair', 'Oil Change Stations']",California,Fontana,False,https://s3-media0.fl.yelpcdn.com/bphoto/tFQDucnZTKEHPH9TWGc_hg/ls.jpg,https://www.yelp.com/biz/les-schwab-tire-center-fontana?osq=Auto+Services&override_cta=Get+pricing
ORA68IAvCzURhfV5VLyutQ,Euro Tech Imports,4.3,190,8200 Masi Dr,34.104221848963206,-117.54962330926207,"['Auto Repair', 'Oil Change Stations', 'Transmission Repair']",California,Fontana,False,https://s3-media0.fl.yelpcdn.com/bphoto/ss0DZV0UtAKxtgI0lzUO9w/ls.jpg,https://www.yelp.com/biz/euro-tech-imports-rancho-cucamonga-2?osq=Auto+Services&override_cta=Get+pricing
aBSvpc2b_nwyoKj_tyXxmw,"Aarow Muffler, Brake & Automotive",4.1,55,17548 Arrow Blvd,34.0997736,-117.4216307,"['Auto Repair', 'Smog Check Stations']",California,Fontana,False,https://s3-media0.fl.yelpcdn.com/bphoto/Lr1ca9WH1Wu-dPnya1t-Tw/ls.jpg,https://www.yelp.com/biz/aarow-muffler-brake-and-automotive-fontana-3?osq=Auto+Services&override_cta=Get+pricing
HuYkK6B_IyloOsIw0NhsIw,Fix Auto - Fontana,4.3,87,8637 Cherry Ave,34.0973392,-117.4881578,"['Body Shops', 'Auto Repair', 'Auto Glass Services']",California,Fontana,False,https://s3-media0.fl.yelpcdn.com/bphoto/MPeaoO-zFoitVDDObMXIAw/ls.jpg,https://www.yelp.com/biz/fix-auto-fontana-fontana-6?osq=Auto+Services&override_cta=Get+pricing
Tsiw10_8wdw66MeYNSEAAQ,Auto Worx,4.7,23,17052 Foothill Blvd,34.1073207835075,-117.43238133677,"['Auto Repair', 'Interlock Systems', 'Wheel & Rim Repair']",California,Fontana,False,https://s3-media0.fl.yelpcdn.com/bphoto/L29Guw7D82W4rId5rw12pg/ls.jpg,https://www.yelp.com/biz/auto-worx-fontana-2?osq=Auto+Services&override_cta=Get+pricing
ia1EzyoeoY9x766YElQ6Nw,AA Smog Check Center,4.8,454,9333 9th St,34.095712479925254,-117.60146031534045,"['Smog Check Stations', 'Auto Repair']",California,Fontana,False,https://s3-media0.fl.yelpcdn.com/bphoto/Ya1J3x1PGNHM1wlXOTR6_Q/ls.jpg,https://www.yelp.com/biz/aa-smog-check-center-rancho-cucamonga?osq=Auto+Services&override_cta=Get+pricing
0vgAgWzObaGw8NSk_zlJkQ,Fontana Tire Center,4.5,65,17890 Foothill Blvd,34.10707110640003,-117.41440970309974,"['Tires', 'Auto Repair', 'Auto Customization']",California,Fontana,False,https://s3-media0.fl.yelpcdn.com/bphoto/z-Ju4dcp7ueiRzrd1wh-GA/ls.jpg,https://www.yelp.com/biz/fontana-tire-center-fontana-2?osq=Auto+Services&override_cta=Get+pricing
6RArcXXfeZiyLjeVsR2-7g,E & S Auto Repair,5.0,7,9530 Sierra Ave,34.0808431,-117.436451,['Auto Repair'],California,Fontana,False,https://s3-media0.fl.yelpcdn.com/bphoto/XQmHKEA_80yLgjFOcwXH6w/ls.jpg,https://www.yelp.com/biz/e-and-s-auto-repair-fontana?osq=Auto+Services&override_cta=Get+pricing
FKoCOMSlih06B_CKw5mdsQ,George's Budget Tire & Auto,4.5,30,8595 Sierra Ave,34.0977248,-117.4352726,"['Tires', 'Auto Repair', 'Smog Check Stations']",California,Fontana,False,https://s3-media0.fl.yelpcdn.com/bphoto/Uz9byThSjCPNVaMvuKv7UQ/ls.jpg,https://www.yelp.com/biz/georges-budget-tire-and-auto-fontana?osq=Auto+Services&override_cta=Get+pricing
5EELTp16k-0nnc-lqU1VOQ,Auto Technik Carcare,4.8,431,5260 Las Flores Dr,33.98234834799234,-117.6896848777898,['Auto Repair'],California,Ontario,False,https://s3-media0.fl.yelpcdn.com/bphoto/bNXQb2DI6qb9jf7VTcSW9w/ls.jpg,https://www.yelp.com/biz/auto-technik-carcare-chino-2?osq=Auto+Services&override_cta=Get+pricing
SRtasU-euJYpr3abE-P6WQ,Maintenance Pros,4.9,120,779 N Benson Ave,34.10287,-117.681342,"['Auto Repair', 'Tires']",California,Ontario,False,https://s3-media0.fl.yelpcdn.com/bphoto/2OSOQ75CMr-pUR0lS6w_Xg/ls.jpg,https://www.yelp.com/biz/maintenance-pros-upland?osq=Auto+Services&override_cta=Get+pricing
WwBI775gQQ1_PBvdjHv3pQ,Enzo's Garage,4.9,30,9377 E 9th St,34.0952957,-117.6009876,['Auto Repair'],California,Ontario,False,https://s3-media0.fl.yelpcdn.com/bphoto/kFUkEDdJdAfAIdaVY0JCtg/ls.jpg,https://www.yelp.com/biz/enzos-garage-rancho-cucamonga?osq=Auto+Services&override_cta=Get+pricing
1JKwzULNDTkzXnyURUZe9Q,Toyotek,4.9,160,8520 8th St,34.09238,-117.619246,"['Auto Repair', 'Smog Check Stations']",California,Ontario,False,https://s3-media0.fl.yelpcdn.com/bphoto/uyKB_fmHtMer0pI9bYDKaQ/ls.jpg,https://www.yelp.com/biz/toyotek-rancho-cucamonga-9?osq=Auto+Services&override_cta=Get+pricing
U0QymbtYaGcXEw-nM_9x0g,Akram Auto Electric,4.8,85,1215 W Holt Blvd,34.0627037,-117.6728065,"['Auto Parts & Supplies', 'Auto Repair']",California,Ontario,False,https://s3-media0.fl.yelpcdn.com/bphoto/QsQHb_DdILydgS6_ka2daQ/ls.jpg,https://www.yelp.com/biz/akram-auto-electric-ontario?osq=Auto+Services&override_cta=Get+pricing
7o3b5Je4UHJl0ub_CElhwg,Grease Monkey Automotive Repair,5.0,5,1409 W Holt Blvd,34.0628398,-117.6773557,['Auto Repair'],California,Ontario,False,https://s3-media0.fl.yelpcdn.com/bphoto/af5gp9aqRN79lzhhxgapZA/ls.jpg,https://www.yelp.com/biz/grease-monkey-automotive-repair-ontario?osq=Auto+Services&override_cta=Get+pricing
RFmwDimcdqMCkIubnprzXA,Brian's Automotive,4.4,34,120 S Plum,34.0628556,-117.6486411,"['Auto Repair', 'Transmission Repair']",California,Ontario,False,https://s3-media0.fl.yelpcdn.com/bphoto/i7CCLEPx4xJ0JidvTWWXrA/ls.jpg,https://www.yelp.com/biz/brians-automotive-ontario?osq=Auto+Services&override_cta=Get+pricing
1RtQ65t_L2aGtAM-SnjuNQ,JR Auto Care,5.0,26,8840 Archibald Ave,34.0931787009846,-117.594055973397,['Auto Repair'],California,Ontario,False,https://s3-media0.fl.yelpcdn.com/bphoto/DD00d5gJGER1wZPerGw7qw/ls.jpg,https://www.yelp.com/biz/jr-auto-care-rancho-cucamonga-2?osq=Auto+Services&override_cta=Get+pricing
70a9eIbJYWbcqC_bIlzo1w,A-1 Auto Expert,4.5,184,14580 Central Ave,33.988481,-117.6897293,['Auto Repair'],California,Ontario,False,https://s3-media0.fl.yelpcdn.com/bphoto/wahbwriO93m7tdf7Mk_Uvg/ls.jpg,https://www.yelp.com/biz/a-1-auto-expert-chino?osq=Auto+Services&override_cta=Get+pricing
sHxjyVHq00QX_NcWNoQM6A,Sal's Garage 909,4.4,203,17338 Foothill Blvd,34.1071523,-117.426241,"['Auto Repair', 'Transmission Repair']",California,Ontario,False,https://s3-media0.fl.yelpcdn.com/bphoto/NeivYDgF5nQyL-yvBHy0hQ/ls.jpg,https://www.yelp.com/biz/sals-garage-909-fontana-3?osq=Auto+Services&override_cta=Get+pricing
uurusRCOUfngeL66lwQ1zA,Best Motor Werks,4.8,148,8740 Flower Rd,34.094937389542295,-117.6081251478504,"['Auto Repair', 'Auto Customization']",California,Ontario,False,https://s3-media0.fl.yelpcdn.com/bphoto/YaiMOxPdxzqd4fKRBDUWSw/ls.jpg,https://www.yelp.com/biz/best-motor-werks-rancho-cucamonga?osq=Auto+Services&override_cta=Get+pricing
R6KDQUYgBvFM09HE2zG_8A,C & S Auto & Truck Repair,4.9,151,10521 Limonite Ave,33.9758187,-117.5143819,"['Auto Repair', 'Transmission Repair']",California,Ontario,False,https://s3-media0.fl.yelpcdn.com/bphoto/OHmni6gvrD7rysefAnrIpw/ls.jpg,https://www.yelp.com/biz/c-and-s-auto-and-truck-repair-mira-loma?osq=Auto+Services&override_cta=Get+pricing
IGkY8LWzW6BAQWpW0Ryatg,Hock's Japanese Car Specialists,4.6,93,45 Rio Rancho Rd,34.034237,-117.754438,"['Auto Repair', 'Oil Change Stations', 'Transmission Repair']",California,Ontario,False,https://s3-media0.fl.yelpcdn.com/bphoto/l9gQN9lQq-O-YKqa9OeGqw/ls.jpg,https://www.yelp.com/biz/hocks-japanese-car-specialists-pomona?osq=Auto+Services&override_cta=Get+pricing
weDHUXv05WojwzijtSsDSg,Al & Sons Automotive - Complete Auto Repair,4.7,40,7126 Amethyst Ave,34.124583,-117.598561,['Auto Repair'],California,Ontario,False,https://s3-media0.fl.yelpcdn.com/bphoto/sPMIrkn8184jix2KwoVgQw/ls.jpg,https://www.yelp.com/biz/al-and-sons-automotive-complete-auto-repair-alta-loma?osq=Auto+Services&override_cta=Get+pricing
2lw6J2pa0wxZzlOSuU5eBQ,Merrill's Smog and Repair,4.9,497,16600 Merrill Ave,34.09239,-117.44177,"['Smog Check Stations', 'Oil Change Stations', 'Auto Repair']",California,Ontario,False,https://s3-media0.fl.yelpcdn.com/bphoto/af_m0T5Jl2e8QRROKXaZNw/ls.jpg,https://www.yelp.com/biz/merrills-smog-and-repair-fontana?osq=Auto+Services&override_cta=Get+pricing
lwRWlmSJw90yc32glnVJ-A,Chino Valley Muffler & Performance,4.9,58,5201 G St,34.00961405312549,-117.6906243,['Auto Repair'],California,Ontario,False,https://s3-media0.fl.yelpcdn.com/bphoto/zKvRoEJNhipAeE-NdRTXkA/ls.jpg,https://www.yelp.com/biz/chino-valley-muffler-and-performance-chino?osq=Auto+Services&override_cta=Get+pricing
ia1EzyoeoY9x766YElQ6Nw,AA Smog Check Center,4.8,454,9333 9th St,34.095712479925254,-117.60146031534045,"['Smog Check Stations', 'Auto Repair']",California,Ontario,False,https://s3-media0.fl.yelpcdn.com/bphoto/Ya1J3x1PGNHM1wlXOTR6_Q/ls.jpg,https://www.yelp.com/biz/aa-smog-check-center-rancho-cucamonga?osq=Auto+Services&override_cta=Get+pricing
2qqKJBBMWEz92_46rAcC2g,Speedy Auto Repair & Electric,4.8,304,23930 Sunnymead Blvd,33.9393419,-117.2451749,"['Auto Repair', 'Oil Change Stations', 'Transmission Repair']",California,Ontario,False,https://s3-media0.fl.yelpcdn.com/bphoto/lvbs64V7q5lyqrSs77g6pQ/ls.jpg,https://www.yelp.com/biz/speedy-auto-repair-and-electric-moreno-valley-2?osq=Auto+Services&override_cta=Get+pricing
F1klJYoJyDbc-cfIvaCBxQ,Rancho Autocare,4.6,156,9311 9th St,34.0954054,-117.6019329,['Auto Repair'],California,Ontario,False,https://s3-media0.fl.yelpcdn.com/bphoto/CgqyaspegK-GZutA3m99Ow/ls.jpg,https://www.yelp.com/biz/rancho-autocare-rancho-cucamonga?osq=Auto+Services&override_cta=Get+pricing
5DzxQoVYNk94X9Vp9vnjuQ,A-1 Auto Care Center,4.7,106,9524 Foothill Blvd,34.10697188059104,-117.59739727288355,"['Auto Repair', 'Oil Change Stations', 'Smog Check Stations']",California,Ontario,False,https://s3-media0.fl.yelpcdn.com/bphoto/Wl45t1WBgwJUAWO3xtbPbw/ls.jpg,https://www.yelp.com/biz/a-1-auto-care-center-rancho-cucamonga?osq=Auto+Services&override_cta=Get+pricing
1DJb8pNC36voQqpKlfGIMQ,Wrightwood Auto Service,4.2,35,1415 State Highway 2,34.359925,-117.631014,['Auto Repair'],California,Ontario,False,https://s3-media0.fl.yelpcdn.com/bphoto/d0w44aSbQGT81ebq5LM3fA/ls.jpg,https://www.yelp.com/biz/wrightwood-auto-service-wrightwood?osq=Auto+Services&override_cta=Get+pricing
AZdzqjDe4LSmrPW1JaJ4yg,Full Service Auto & Transmission Repairs,4.8,360,14747 Artesia Blvd,33.8745326,-118.0166112,"['Auto Repair', 'Transmission Repair']",California,Ontario,False,https://s3-media0.fl.yelpcdn.com/bphoto/w2_MOoFBHdxFZNYsZlsdHw/ls.jpg,https://www.yelp.com/biz/full-service-auto-and-transmission-repairs-la-mirada-3?osq=Auto+Services&override_cta=Get+pricing
6eCnZpyxI2DkW0FyfJn9Kg,Purrfect Auto Service,4.2,96,5483 Arrow Hwy,34.09199527768,-117.68569280899,"['Auto Repair', 'Oil Change Stations']",California,Ontario,False,https://s3-media0.fl.yelpcdn.com/bphoto/oqxtrWmUEPa6LTd2JijaLA/ls.jpg,https://www.yelp.com/biz/purrfect-auto-service-montclair-7?osq=Auto+Services&override_cta=Get+pricing
QCMifPWF82EdWRh5wfUtFg,Star Tech Foreign Auto Repair,4.5,381,14602 Central Ave,33.9880538,-117.689423,['Auto Repair'],California,Ontario,False,https://s3-media0.fl.yelpcdn.com/bphoto/k0XLezdecKp58NePsyIM4Q/ls.jpg,https://www.yelp.com/biz/star-tech-foreign-auto-repair-chino?osq=Auto+Services&override_cta=Get+pricing
zqA1Y-We-QVeOfGrnDJuig,Ultimate Werk Shop,5.0,35,310 W Foothill Blvd,34.108778133597994,-117.7525244,['Auto Repair'],California,Ontario,False,https://s3-media0.fl.yelpcdn.com/bphoto/klxPXCGubf6uUoc3-vPrAQ/ls.jpg,https://www.yelp.com/biz/ultimate-werk-shop-pomona?osq=Auto+Services&override_cta=Get+pricing
Q8mmjSgE5YXl_UQXUF-fUA,Alonso's Auto Repair,4.5,306,1820 W 11th St,34.1029603,-117.6855031,"['Auto Repair', 'Oil Change Stations', 'Smog Check Stations']",California,Ontario,False,https://s3-media0.fl.yelpcdn.com/bphoto/JGDqUZ2hHI-Qs-LdhRtfnw/ls.jpg,https://www.yelp.com/biz/alonsos-auto-repair-upland-2?osq=Auto+Services&override_cta=Get+pricing
o8CqWW5cgLb8g9yR74f0MA,B And D Auto Repair,5.0,287,753 W Rte 66,34.1292765,-117.8780046,['Auto Repair'],California,Ontario,False,https://s3-media0.fl.yelpcdn.com/bphoto/T1dYYQog3zRZ9fXQcZhIVg/ls.jpg,https://www.yelp.com/biz/b-and-d-auto-repair-glendora?osq=Auto+Services&override_cta=Get+pricing
n9rBum_Pw98z7263HN1tiA,F & A Autobody,4.8,32,8881 Hellman Ave,34.092373,-117.601903,"['Body Shops', 'Auto Repair', 'Windshield Installation & Repair']",California,Ontario,False,https://s3-media0.fl.yelpcdn.com/bphoto/6j6UxiQZxfw2sNLUeshzWA/ls.jpg,https://www.yelp.com/biz/f-and-a-autobody-rancho-cucamonga-3?osq=Auto+Services&override_cta=Get+pricing
JjsKP6VN8-AtpZpPxiZxXw,The Auto Shop,4.9,64,8724 8th St,34.0923133,-117.6145454,['Auto Repair'],California,Ontario,False,https://s3-media0.fl.yelpcdn.com/bphoto/fa0Cq8NgxO4k6jQbePGfOA/ls.jpg,https://www.yelp.com/biz/the-auto-shop-rancho-cucamonga?osq=Auto+Services&override_cta=Get+pricing
wRhP4RX40yI7S8pqOk3tiQ,Hilo Auto Service,4.6,76,10075 Arrow Rt,34.098892,-117.585697,"['Auto Repair', 'Tires', 'Transmission Repair']",California,Ontario,False,https://s3-media0.fl.yelpcdn.com/bphoto/MCgIRB9h4tGn4KOfohzUEQ/ls.jpg,https://www.yelp.com/biz/hilo-auto-service-rancho-cucamonga-3?osq=Auto+Services&override_cta=Get+pricing
llmaZQMVaU4N1jxgtcqW6w,Martinez and Son Auto Repair,4.4,43,1720 S Grove Ave,34.0423507832311,-117.629555761814,['Auto Repair'],California,Ontario,False,https://s3-media0.fl.yelpcdn.com/bphoto/cPLyoP2uDjNjkZE2UoJ03Q/ls.jpg,https://www.yelp.com/biz/martinez-and-son-auto-repair-ontario?osq=Auto+Services&override_cta=Get+pricing
d_KZBnAOMg_c-ZnjRmqUYA,Mountain View Tire & Auto Service,4.0,158,1389 E 19th St,34.132980501651886,-117.63069434110452,"['Tires', 'Auto Repair', 'Oil Change Stations']",California,Ontario,False,https://s3-media0.fl.yelpcdn.com/bphoto/ZHhRD2J8lJF8DqzVqd7-iw/ls.jpg,https://www.yelp.com/biz/mountain-view-tire-and-auto-service-upland-2?osq=Auto+Services&override_cta=Get+pricing
b5YvCghiv6SScDCLbcKWKA,Pea Auto Service,5.0,13,1045 W Holt Ave,34.0622280651569,-117.767847467944,"['Auto Repair', 'Transmission Repair', 'Oil Change Stations']",California,Ontario,False,https://s3-media0.fl.yelpcdn.com/bphoto/5C7hlheGmPlIZnTSGgva9w/ls.jpg,https://www.yelp.com/biz/pe%C3%B1a-auto-service-pomona?osq=Auto+Services&override_cta=Get+pricing
sQxc6WBFtIs5iclGh2e0xQ,Primos Cylinder Head,4.3,12,630 S Bon View Ave,34.057068,-117.636977,"['Auto Repair', 'Oil Change Stations', 'Machine Shops']",California,Ontario,False,https://s3-media0.fl.yelpcdn.com/bphoto/sswoP4PDI8iOusEaqefVQg/ls.jpg,https://www.yelp.com/biz/primos-cylinder-head-ontario?osq=Auto+Services&override_cta=Get+pricing
I3boRQziRQD10T2TysgtPQ,Mountain View Tire & Auto Service,3.9,152,14373 Baseline Rd,34.1211582,-117.4911454,"['Tires', 'Auto Repair', 'Oil Change Stations']",California,Ontario,False,https://s3-media0.fl.yelpcdn.com/bphoto/pVGMa5c90bOVy6dPFNQabg/ls.jpg,https://www.yelp.com/biz/mountain-view-tire-and-auto-service-fontana-2?osq=Auto+Services&override_cta=Get+pricing
